~Version Information
VERS.                      2.0: CWLS Log ASCII Standard - VERSION 2.0
WRAP.                      YES: Multiple lines per depth step
~Well Information Block
STRT.SEC               -1.8000: START DEPTH
STOP.SEC              599.7000: STOP DEPTH
STEP.SEC                0.1000: STEP
NULL.                -999.2500: NULL VALUE
COMP.                         : COMPANY
WELL.                         : WELL
FLD.                          : FIELD
LOC.                          : LOCATION
CNTY.                         : COUNTY
SRVC.                         : SERVICE COMPANY
DATE.          Fri Jan 03 08-09-13 2020: LOG DATE
UWI.                          : UNIQUE WELL ID
STAT.                         : STATE
~Curve Information Block
TIME.SEC           0 000 00 00: Elapsed Time
R01.IN                        : Radius 01
R02.IN                        : Radius 02
R03.IN                        : Radius 03
R04.IN                        : Radius 04
R05.IN                        : Radius 05
R06.IN                        : Radius 06
R07.IN                        : Radius 07
R08.IN                        : Radius 08
R09.IN                        : Radius 09
R10.IN                        : Radius 10
R11.IN                        : Radius 11
R12.IN                        : Radius 12
R13.IN                        : Radius 13
R14.IN                        : Radius 14
R15.IN                        : Radius 15
R16.IN                        : Radius 16
R17.IN                        : Radius 17
R18.IN                        : Radius 18
R19.IN                        : Radius 19
R20.IN                        : Radius 20
R21.IN                        : Radius 21
R22.IN                        : Radius 22
R23.IN                        : Radius 23
R24.IN                        : Radius 24
TEMP1.DEGF                    : TEMP1
~Parameter Information Block
~A  TIME   
# ...
   437.6000
   2482.0000   2702.0000   2558.0000   2489.0000   2642.0000   2601.0000
   2617.0000   2879.0000   2592.0000   2765.0000   2604.0000   2418.0000
   3006.0000   2664.0000   2651.0000   2698.0000   2619.0000   2489.0000
   2793.0000   2447.0000   2764.0000   2728.0000   2732.0000   2517.0000
    652.4250
   437.7000
   2484.0000   2700.0000   2556.0000   2489.0000   2646.0000   2604.0000
   2621.0000   2877.0000   2592.0000   2763.0000   2605.0000   2418.0000
   3007.0000   2663.0000   2652.0000   2702.0000   2619.0000   2489.0000
   2791.0000   2448.0000   2763.0000   2728.0000   2731.0000   2517.0000
    652.4250
   437.8000
   2483.0000   2702.0000   2558.0000   2489.0000   2644.0000   2605.0000
   2621.0000   2875.0000   2589.0000   2767.0000   2605.0000   2419.0000
   3006.0000   2662.0000   2646.0000   2698.0000   2618.0000   2489.0000
   2793.0000   2447.0000   2765.0000   2731.0000   2730.0000   2515.0000
    652.4250
   437.9000
   2483.0000   2701.0000   2557.0000   2488.0000   2643.0000   2603.0000
   2620.0000   2876.0000   2592.0000   2766.0000   2604.0000   2418.0000
   3009.0000   2658.0000   2653.0000   2702.0000   2618.0000   2489.0000
   2793.0000   2445.0000   2765.0000   2726.0000   2733.0000   2518.0000
    652.4250
   438.0000
   2482.0000   2701.0000   2558.0000   2490.0000   2645.0000   2605.0000
   2620.0000   2876.0000   2587.0000   2765.0000   2606.0000   2419.0000
   3006.0000   2661.0000   2651.0000   2701.0000   2618.0000   2488.0000
   2793.0000   2448.0000   2763.0000   2724.0000   2730.0000   2519.0000
    652.4250
   438.1000
   2481.0000   2700.0000   2557.0000   2487.0000   2643.0000   2603.0000
   2619.0000   2875.0000   2590.0000   2764.0000   2606.0000   2419.0000
   3010.0000   2661.0000   2653.0000   2699.0000   2619.0000   2490.0000
   2793.0000   2449.0000   2766.0000   2728.0000   2732.0000   2518.0000
    652.4500
   438.2000
   2483.0000   2702.0000   2559.0000   2490.0000   2643.0000   2605.0000
   2621.0000   2877.0000   2590.0000   2765.0000   2604.0000   2418.0000
   3007.0000   2664.0000   2651.0000   2700.0000   2619.0000   2487.0000
   2792.0000   2446.0000   2765.0000   2733.0000   2733.0000   2519.0000
    652.4750
   438.3000
   2482.0000   2702.0000   2558.0000   2489.0000   2643.0000   2603.0000
   2618.0000   2879.0000   2586.0000   2766.0000   2606.0000   2419.0000
   3006.0000   2661.0000   2651.0000   2700.0000   2618.0000   2486.0000
   2794.0000   2448.0000   2765.0000   2726.0000   2733.0000   2517.0000
    652.4750
   438.4000
   2484.0000   2703.0000   2557.0000   2486.0000   2645.0000   2605.0000
   2621.0000   2876.0000   2591.0000   2765.0000   2606.0000   2419.0000
   3007.0000   2661.0000   2649.0000   2702.0000   2618.0000   2490.0000
   2793.0000   2446.0000   2764.0000   2727.0000   2731.0000   2519.0000
    652.4750
   438.5000
   2483.0000   2701.0000   2557.0000   2489.0000   2643.0000   2606.0000
   2620.0000   2875.0000   2591.0000   2765.0000   2605.0000   2418.0000
   3008.0000   2663.0000   2656.0000   2699.0000   2619.0000   2488.0000
   2793.0000   2448.0000   2764.0000   2729.0000   2733.0000   2514.0000
    652.4500
   438.6000
   2483.0000   2702.0000   2555.0000   2490.0000   2644.0000   2603.0000
   2620.0000   2878.0000   2589.0000   2763.0000   2606.0000   2419.0000
   3006.0000   2661.0000   2653.0000   2698.0000   2616.0000   2488.0000
   2794.0000   2447.0000   2765.0000   2728.0000   2733.0000   2516.0000
    652.4250
   438.7000
   2483.0000   2701.0000   2556.0000   2487.0000   2643.0000   2604.0000
   2619.0000   2877.0000   2590.0000   2767.0000   2605.0000   2419.0000
   3007.0000   2663.0000   2654.0000   2698.0000   2619.0000   2488.0000
   2793.0000   2448.0000   2765.0000   2728.0000   2734.0000   2515.0000
    652.4000
   438.8000
   2483.0000   2704.0000   2557.0000   2488.0000   2644.0000   2604.0000
   2618.0000   2875.0000   2589.0000   2765.0000   2606.0000   2421.0000
   3007.0000   2660.0000   2654.0000   2701.0000   2620.0000   2489.0000
   2791.0000   2447.0000   2765.0000   2728.0000   2732.0000   2517.0000
    652.4250
   438.9000
   2482.0000   2701.0000   2558.0000   2489.0000   2643.0000   2604.0000
   2619.0000   2876.0000   2590.0000   2766.0000   2605.0000   2420.0000
   3008.0000   2661.0000   2652.0000   2702.0000   2619.0000   2488.0000
   2793.0000   2447.0000   2764.0000   2726.0000   2730.0000   2521.0000
    652.4250
   439.0000
   2483.0000   2702.0000   2556.0000   2487.0000   2643.0000   2605.0000
   2619.0000   2877.0000   2592.0000   2764.0000   2605.0000   2417.0000
   3008.0000   2663.0000   2654.0000   2700.0000   2619.0000   2489.0000
   2794.0000   2448.0000   2764.0000   2726.0000   2736.0000   2514.0000
    652.4500
   439.1000
   2485.0000   2701.0000   2556.0000   2490.0000   2646.0000   2603.0000
   2620.0000   2877.0000   2590.0000   2764.0000   2604.0000   2419.0000
   3005.0000   2660.0000   2652.0000   2700.0000   2619.0000   2489.0000
   2792.0000   2449.0000   2765.0000   2727.0000   2729.0000   2517.0000
    652.4250
   439.2000
   2481.0000   2702.0000   2557.0000   2488.0000   2644.0000   2605.0000
   2618.0000   2879.0000   2591.0000   2765.0000   2606.0000   2419.0000
   3003.0000   2669.0000   2654.0000   2702.0000   2619.0000   2488.0000
   2790.0000   2450.0000   2767.0000   2729.0000   2734.0000   2516.0000
    652.4500
   439.3000
   2482.0000   2701.0000   2554.0000   2490.0000   2644.0000   2602.0000
   2621.0000   2876.0000   2590.0000   2764.0000   2605.0000   2420.0000
   3009.0000   2657.0000   2653.0000   2700.0000   2619.0000   2490.0000
   2793.0000   2448.0000   2764.0000   2728.0000   2732.0000   2517.0000
    652.4750
   439.4000
   2484.0000   2702.0000   2556.0000   2485.0000   2643.0000   2603.0000
   2622.0000   2878.0000   2590.0000   2769.0000   2608.0000   2419.0000
   3007.0000   2664.0000   2653.0000   2701.0000   2618.0000   2488.0000
   2794.0000   2447.0000   2766.0000   2731.0000   2733.0000   2521.0000
    652.4250
   439.5000
   2484.0000   2701.0000   2557.0000   2491.0000   2645.0000   2603.0000
   2619.0000   2878.0000   2590.0000   2765.0000   2602.0000   2418.0000
   3007.0000   2661.0000   2651.0000   2699.0000   2618.0000   2490.0000
   2790.0000   2449.0000   2764.0000   2727.0000   2731.0000   2516.0000
    652.4500
   439.6000
   2484.0000   2701.0000   2553.0000   2488.0000   2645.0000   2606.0000
   2619.0000   2878.0000   2589.0000   2765.0000   2605.0000   2418.0000
   3007.0000   2664.0000   2653.0000   2699.0000   2618.0000   2490.0000
   2792.0000   2448.0000   2765.0000   2729.0000   2729.0000   2515.0000
    652.4000
   439.7000
   2484.0000   2702.0000   2556.0000   2490.0000   2646.0000   2604.0000
   2621.0000   2877.0000   2590.0000   2763.0000   2605.0000   2418.0000
   3007.0000   2662.0000   2651.0000   2692.0000   2619.0000   2490.0000
   2792.0000   2446.0000   2765.0000   2725.0000   2729.0000   2514.0000
    652.4000
   439.8000
   2484.0000   2703.0000   2555.0000   2489.0000   2645.0000   2604.0000
   2619.0000   2878.0000   2592.0000   2766.0000   2605.0000   2420.0000
   3009.0000   2662.0000   2653.0000   2699.0000   2618.0000   2489.0000
   2791.0000   2450.0000   2764.0000   2728.0000   2729.0000   2516.0000
    652.3750
   439.9000
   2484.0000   2701.0000   2556.0000   2489.0000   2646.0000   2605.0000
   2619.0000   2878.0000   2585.0000   2763.0000   2605.0000   2419.0000
   3007.0000   2662.0000   2651.0000   2703.0000   2617.0000   2489.0000
   2791.0000   2449.0000   2764.0000   2733.0000   2731.0000   2518.0000
    652.3750
   440.0000
   2485.0000   2701.0000   2557.0000   2489.0000   2646.0000   2602.0000
   2620.0000   2877.0000   2590.0000   2765.0000   2609.0000   2415.0000
   3006.0000   2662.0000   2651.0000   2704.0000   2618.0000   2491.0000
   2792.0000   2448.0000   2765.0000   2727.0000   2728.0000   2515.0000
    652.4000
   440.1000
   2484.0000   2704.0000   2555.0000   2489.0000   2645.0000   2604.0000
   2620.0000   2876.0000   2591.0000   2765.0000   2605.0000   2418.0000
   3007.0000   2658.0000   2652.0000   2698.0000   2618.0000   2487.0000
   2792.0000   2449.0000   2765.0000   2727.0000   2728.0000   2516.0000
    652.4000
