~Version Information
VERS.                      2.0: CWLS Log ASCII Standard - VERSION 2.0
WRAP.                      YES: Multiple lines per depth step
~Well Information Block
STRT.SEC               -1.8000: START DEPTH
STOP.SEC              599.7000: STOP DEPTH
STEP.SEC                0.1000: STEP
NULL.                -999.2500: NULL VALUE
COMP.                         : COMPANY
WELL.                         : WELL
FLD.                          : FIELD
LOC.                          : LOCATION
CNTY.                         : COUNTY
SRVC.                         : SERVICE COMPANY
DATE.          Fri Jan 03 08-09-13 2020: LOG DATE
UWI.                          : UNIQUE WELL ID
STAT.                         : STATE
~Curve Information Block
TIME.SEC           0 000 00 00: Elapsed Time
R01.IN                        : Radius 01
R02.IN                        : Radius 02
R03.IN                        : Radius 03
R04.IN                        : Radius 04
R05.IN                        : Radius 05
R06.IN                        : Radius 06
R07.IN                        : Radius 07
R08.IN                        : Radius 08
R09.IN                        : Radius 09
R10.IN                        : Radius 10
R11.IN                        : Radius 11
R12.IN                        : Radius 12
R13.IN                        : Radius 13
R14.IN                        : Radius 14
R15.IN                        : Radius 15
R16.IN                        : Radius 16
R17.IN                        : Radius 17
R18.IN                        : Radius 18
R19.IN                        : Radius 19
R20.IN                        : Radius 20
R21.IN                        : Radius 21
R22.IN                        : Radius 22
R23.IN                        : Radius 23
R24.IN                        : Radius 24
TEMP1.DEGF                    : TEMP1
~Parameter Information Block
~A  TIME   
# ...
   120.4000
    855.0000    907.0000    990.0000    836.0000    871.0000   1043.0000
    972.0000   1307.0000    927.0000   1023.0000    913.0000    902.0000
   1262.0000   1066.0000    866.0000   1001.0000   1000.0000    880.0000
   1129.0000   1000.0000   1011.0000    950.0000   1081.0000    905.0000
    651.6750
   120.5000
    854.0000    905.0000    988.0000    837.0000    871.0000   1037.0000
    971.0000   1308.0000    927.0000   1024.0000    910.0000    904.0000
   1261.0000   1064.0000    870.0000   1000.0000   1003.0000    880.0000
   1131.0000   1000.0000   1012.0000    948.0000   1079.0000    905.0000
    651.6750
   120.6000
    857.0000    906.0000    991.0000    836.0000    869.0000   1042.0000
    973.0000   1307.0000    927.0000   1024.0000    911.0000    906.0000
   1261.0000   1068.0000    869.0000   1001.0000   1003.0000    881.0000
   1130.0000   1000.0000   1013.0000    949.0000   1079.0000    903.0000
    651.7000
   120.7000
    855.0000    906.0000    991.0000    838.0000    873.0000   1043.0000
    970.0000   1305.0000    927.0000   1023.0000    911.0000    902.0000
   1261.0000   1066.0000    873.0000   1000.0000   1002.0000    882.0000
   1131.0000    998.0000   1014.0000    949.0000   1081.0000    904.0000
    651.6750
   120.8000
    853.0000    906.0000    990.0000    837.0000    871.0000   1039.0000
    973.0000   1304.0000    927.0000   1024.0000    911.0000    904.0000
   1263.0000   1064.0000    872.0000   1002.0000   1004.0000    881.0000
   1128.0000    999.0000   1014.0000    948.0000   1079.0000    906.0000
    651.7250
   120.9000
    855.0000    906.0000    992.0000    838.0000    870.0000   1043.0000
    974.0000   1308.0000    927.0000   1023.0000    911.0000    904.0000
   1258.0000   1066.0000    870.0000   1001.0000   1003.0000    881.0000
   1129.0000    999.0000   1013.0000    949.0000   1081.0000    904.0000
    651.7500
   121.0000
    854.0000    904.0000    990.0000    835.0000    871.0000   1038.0000
    972.0000   1305.0000    927.0000   1025.0000    909.0000    903.0000
   1262.0000   1063.0000    870.0000   1001.0000   1002.0000    878.0000
   1131.0000    997.0000   1012.0000    948.0000   1079.0000    906.0000
    651.7750
   121.1000
    854.0000    907.0000    992.0000    836.0000    871.0000   1044.0000
    972.0000   1306.0000    928.0000   1022.0000    912.0000    904.0000
   1261.0000   1065.0000    870.0000   1003.0000   1001.0000    882.0000
   1129.0000    998.0000   1013.0000    952.0000   1080.0000    906.0000
    651.7500
   121.2000
    855.0000    906.0000    991.0000    837.0000    870.0000   1040.0000
    972.0000   1305.0000    928.0000   1022.0000    911.0000    903.0000
   1255.0000   1065.0000    871.0000   1003.0000   1001.0000    882.0000
   1133.0000    998.0000   1012.0000    946.0000   1080.0000    905.0000
    651.7250
   121.3000
    855.0000    908.0000    992.0000    836.0000    873.0000   1040.0000
    972.0000   1305.0000    928.0000   1022.0000    910.0000    903.0000
   1261.0000   1065.0000    874.0000    998.0000   1001.0000    880.0000
   1132.0000   1001.0000   1013.0000    949.0000   1079.0000    905.0000
    651.7250
   121.4000
    856.0000    908.0000    992.0000    836.0000    872.0000   1042.0000
    973.0000   1305.0000    926.0000   1023.0000    913.0000    903.0000
   1259.0000   1066.0000    870.0000   1001.0000   1001.0000    882.0000
   1130.0000   1001.0000   1012.0000    951.0000   1081.0000    907.0000
    651.7250
   121.5000
    856.0000    905.0000    990.0000    837.0000    872.0000   1039.0000
    970.0000   1308.0000    928.0000   1023.0000    910.0000    900.0000
   1261.0000   1068.0000    871.0000   1000.0000   1002.0000    881.0000
   1131.0000    999.0000   1014.0000    951.0000   1083.0000    903.0000
    651.7500
   121.6000
    856.0000    908.0000    990.0000    837.0000    872.0000   1043.0000
    971.0000   1307.0000    928.0000   1023.0000    912.0000    903.0000
   1264.0000   1066.0000    870.0000   1002.0000   1001.0000    882.0000
   1129.0000   1000.0000   1013.0000    950.0000   1080.0000    906.0000
    651.7750
   121.7000
    855.0000    906.0000    991.0000    837.0000    871.0000   1038.0000
    972.0000   1306.0000    928.0000   1022.0000    911.0000    904.0000
   1262.0000   1065.0000    870.0000   1000.0000   1003.0000    882.0000
   1132.0000    999.0000   1015.0000    947.0000   1078.0000    906.0000
    651.7750
   121.8000
    855.0000    906.0000    992.0000    837.0000    870.0000   1042.0000
    973.0000   1307.0000    929.0000   1024.0000    911.0000    904.0000
   1263.0000   1066.0000    869.0000   1001.0000   1001.0000    878.0000
   1128.0000   1001.0000   1013.0000    948.0000   1084.0000    904.0000
    651.7750
   121.9000
    855.0000    909.0000    990.0000    838.0000    872.0000   1039.0000
    972.0000   1307.0000    929.0000   1024.0000    911.0000    904.0000
   1263.0000   1060.0000    868.0000   1004.0000   1001.0000    879.0000
   1129.0000   1002.0000   1013.0000    947.0000   1080.0000    904.0000
    651.7500
   122.0000
    854.0000    906.0000    992.0000    838.0000    871.0000   1039.0000
    973.0000   1307.0000    927.0000   1022.0000    911.0000    904.0000
   1261.0000   1065.0000    872.0000   1002.0000   1001.0000    880.0000
   1130.0000   1002.0000   1012.0000    950.0000   1082.0000    904.0000
    651.7750
   122.1000
    853.0000    906.0000    992.0000    837.0000    871.0000   1042.0000
    974.0000   1307.0000    928.0000   1024.0000    913.0000    903.0000
   1255.0000   1067.0000    870.0000   1002.0000   1002.0000    879.0000
   1127.0000    999.0000   1013.0000    949.0000   1081.0000    905.0000
    651.7750
   122.2000
    854.0000    907.0000    990.0000    837.0000    872.0000   1037.0000
    972.0000   1305.0000    928.0000   1024.0000    912.0000    906.0000
   1261.0000   1064.0000    871.0000   1001.0000   1003.0000    882.0000
   1131.0000   1002.0000   1013.0000    951.0000   1084.0000    903.0000
    651.7500
   122.3000
    855.0000    907.0000    992.0000    836.0000    871.0000   1042.0000
    972.0000   1306.0000    927.0000   1023.0000    912.0000    903.0000
   1261.0000   1066.0000    870.0000   1001.0000   1001.0000    880.0000
   1131.0000   1001.0000   1014.0000    950.0000   1080.0000    899.0000
    651.7750
   122.4000
    855.0000    907.0000    990.0000    835.0000    871.0000   1038.0000
    972.0000   1306.0000    928.0000   1018.0000    910.0000    904.0000
   1262.0000   1068.0000    867.0000   1001.0000   1001.0000    881.0000
   1131.0000   1001.0000   1013.0000    949.0000   1080.0000    905.0000
    651.8000
   122.5000
    856.0000    908.0000    990.0000    837.0000    872.0000   1043.0000
    972.0000   1306.0000    929.0000   1023.0000    911.0000    902.0000
   1264.0000   1065.0000    869.0000    999.0000   1001.0000    881.0000
   1131.0000    998.0000   1013.0000    949.0000   1082.0000    902.0000
    651.8000
   122.6000
    854.0000    907.0000    991.0000    836.0000    871.0000   1042.0000
    973.0000   1306.0000    927.0000   1026.0000    910.0000    905.0000
   1261.0000   1062.0000    870.0000   1003.0000   1003.0000    880.0000
   1130.0000   1001.0000   1014.0000    948.0000   1081.0000    904.0000
    651.8000
   122.7000
    856.0000    908.0000    990.0000    837.0000    872.0000   1038.0000
    973.0000   1307.0000    929.0000   1022.0000    910.0000    903.0000
   1262.0000   1059.0000    870.0000   1004.0000   1001.0000    881.0000
   1134.0000   1001.0000   1011.0000    946.0000   1079.0000    905.0000
    651.8000
   122.8000
    857.0000    906.0000    991.0000    837.0000    869.0000   1043.0000
    973.0000   1306.0000    928.0000   1021.0000    913.0000    903.0000
   1260.0000   1065.0000    868.0000   1001.0000   1002.0000    878.0000
   1128.0000   1001.0000   1015.0000    950.0000   1080.0000    906.0000
    651.8000
   122.9000
    856.0000    907.0000    990.0000    838.0000    873.0000   1038.0000
    973.0000   1306.0000    927.0000   1023.0000    909.0000    904.0000
   1262.0000   1067.0000    871.0000   1001.0000   1002.0000    882.0000
   1132.0000   1002.0000   1013.0000    949.0000   1084.0000    904.0000
    651.8000
