~Version Information
VERS.                      2.0: CWLS Log ASCII Standard - VERSION 2.0
WRAP.                      YES: Multiple lines per depth step
~Well Information Block
STRT.SEC               -1.8000: START DEPTH
STOP.SEC              599.7000: STOP DEPTH
STEP.SEC                0.1000: STEP
NULL.                -999.2500: NULL VALUE
COMP.                         : COMPANY
WELL.                         : WELL
FLD.                          : FIELD
LOC.                          : LOCATION
CNTY.                         : COUNTY
SRVC.                         : SERVICE COMPANY
DATE.          Fri Jan 03 08-09-13 2020: LOG DATE
UWI.                          : UNIQUE WELL ID
STAT.                         : STATE
~Curve Information Block
TIME.SEC           0 000 00 00: Elapsed Time
R01.IN                        : Radius 01
R02.IN                        : Radius 02
R03.IN                        : Radius 03
R04.IN                        : Radius 04
R05.IN                        : Radius 05
R06.IN                        : Radius 06
R07.IN                        : Radius 07
R08.IN                        : Radius 08
R09.IN                        : Radius 09
R10.IN                        : Radius 10
R11.IN                        : Radius 11
R12.IN                        : Radius 12
R13.IN                        : Radius 13
R14.IN                        : Radius 14
R15.IN                        : Radius 15
R16.IN                        : Radius 16
R17.IN                        : Radius 17
R18.IN                        : Radius 18
R19.IN                        : Radius 19
R20.IN                        : Radius 20
R21.IN                        : Radius 21
R22.IN                        : Radius 22
R23.IN                        : Radius 23
R24.IN                        : Radius 24
TEMP1.DEGF                    : TEMP1
~Parameter Information Block
~A  TIME   
# ...
   515.6000
   2684.0000   2928.0000   2754.0000   2691.0000   2859.0000   2797.0000
   2819.0000   3068.0000   2791.0000   2981.0000   2810.0000   2616.0000
   3219.0000   2866.0000   2875.0000   2909.0000   2821.0000   2691.0000
   2999.0000   2637.0000   2982.0000   2949.0000   2937.0000   2724.0000
    652.5250
   515.7000
   2685.0000   2924.0000   2753.0000   2691.0000   2860.0000   2800.0000
   2816.0000   3070.0000   2791.0000   2981.0000   2809.0000   2616.0000
   3219.0000   2869.0000   2874.0000   2910.0000   2821.0000   2691.0000
   3000.0000   2635.0000   2981.0000   2952.0000   2939.0000   2722.0000
    652.5000
   515.8000
   2683.0000   2926.0000   2751.0000   2692.0000   2859.0000   2799.0000
   2816.0000   3068.0000   2789.0000   2984.0000   2811.0000   2616.0000
   3221.0000   2867.0000   2876.0000   2909.0000   2821.0000   2693.0000
   2998.0000   2633.0000   2979.0000   2947.0000   2936.0000   2722.0000
    652.5000
   515.9000
   2685.0000   2925.0000   2751.0000   2692.0000   2860.0000   2798.0000
   2817.0000   3069.0000   2791.0000   2981.0000   2810.0000   2615.0000
   3220.0000   2868.0000   2875.0000   2910.0000   2822.0000   2692.0000
   2999.0000   2633.0000   2982.0000   2949.0000   2937.0000   2722.0000
    652.5000
   516.0000
   2685.0000   2926.0000   2753.0000   2693.0000   2860.0000   2798.0000
   2817.0000   3069.0000   2791.0000   2982.0000   2807.0000   2617.0000
   3219.0000   2869.0000   2875.0000   2908.0000   2822.0000   2692.0000
   3000.0000   2634.0000   2981.0000   2943.0000   2939.0000   2720.0000
    652.5000
   516.1000
   2684.0000   2924.0000   2752.0000   2693.0000   2860.0000   2798.0000
   2817.0000   3069.0000   2794.0000   2981.0000   2810.0000   2615.0000
   3218.0000   2865.0000   2876.0000   2908.0000   2821.0000   2692.0000
   2997.0000   2638.0000   2979.0000   2949.0000   2937.0000   2722.0000
    652.5000
   516.2000
   2685.0000   2925.0000   2753.0000   2692.0000   2858.0000   2801.0000
   2818.0000   3066.0000   2791.0000   2980.0000   2809.0000   2621.0000
   3220.0000   2870.0000   2871.0000   2909.0000   2822.0000   2689.0000
   2997.0000   2633.0000   2979.0000   2951.0000   2937.0000   2720.0000
    652.5500
   516.3000
   2684.0000   2925.0000   2754.0000   2693.0000   2858.0000   2797.0000
   2818.0000   3069.0000   2792.0000   2981.0000   2810.0000   2614.0000
   3219.0000   2868.0000   2875.0000   2910.0000   2820.0000   2690.0000
   2999.0000   2636.0000   2979.0000   2949.0000   2935.0000   2723.0000
    652.5500
   516.4000
   2683.0000   2925.0000   2753.0000   2693.0000   2858.0000   2800.0000
   2818.0000   3067.0000   2793.0000   2974.0000   2808.0000   2617.0000
   3221.0000   2868.0000   2876.0000   2910.0000   2822.0000   2691.0000
   2997.0000   2636.0000   2980.0000   2948.0000   2937.0000   2723.0000
    652.5250
   516.5000
   2684.0000   2927.0000   2754.0000   2691.0000   2859.0000   2798.0000
   2818.0000   3068.0000   2791.0000   2981.0000   2811.0000   2616.0000
   3219.0000   2867.0000   2876.0000   2908.0000   2822.0000   2691.0000
   2997.0000   2634.0000   2979.0000   2950.0000   2937.0000   2722.0000
    652.5250
   516.6000
   2683.0000   2924.0000   2753.0000   2693.0000   2858.0000   2802.0000
   2818.0000   3068.0000   2794.0000   2978.0000   2810.0000   2617.0000
   3220.0000   2868.0000   2875.0000   2909.0000   2820.0000   2690.0000
   3000.0000   2636.0000   2980.0000   2950.0000   2937.0000   2721.0000
    652.5250
   516.7000
   2685.0000   2925.0000   2753.0000   2691.0000   2859.0000   2801.0000
   2817.0000   3068.0000   2792.0000   2980.0000   2811.0000   2616.0000
   3219.0000   2871.0000   2873.0000   2911.0000   2821.0000   2692.0000
   2995.0000   2635.0000   2980.0000   2950.0000   2936.0000   2721.0000
    652.5500
   516.8000
   2683.0000   2926.0000   2753.0000   2692.0000   2858.0000   2797.0000
   2817.0000   3066.0000   2791.0000   2981.0000   2811.0000   2617.0000
   3220.0000   2866.0000   2877.0000   2910.0000   2822.0000   2692.0000
   2999.0000   2637.0000   2981.0000   2949.0000   2933.0000   2721.0000
    652.5750
   516.9000
   2683.0000   2925.0000   2755.0000   2694.0000   2858.0000   2802.0000
   2819.0000   3067.0000   2794.0000   2980.0000   2810.0000   2616.0000
   3220.0000   2867.0000   2876.0000   2911.0000   2821.0000   2689.0000
   2999.0000   2633.0000   2979.0000   2946.0000   2937.0000   2720.0000
    652.5750
   517.0000
   2683.0000   2926.0000   2753.0000   2693.0000   2858.0000   2799.0000
   2817.0000   3067.0000   2790.0000   2983.0000   2809.0000   2616.0000
   3219.0000   2868.0000   2875.0000   2911.0000   2822.0000   2690.0000
   2999.0000   2635.0000   2980.0000   2949.0000   2938.0000   2722.0000
    652.5500
   517.1000
   2684.0000   2925.0000   2752.0000   2693.0000   2858.0000   2801.0000
   2818.0000   3066.0000   2792.0000   2979.0000   2809.0000   2618.0000
   3222.0000   2869.0000   2876.0000   2909.0000   2822.0000   2693.0000
   2998.0000   2636.0000   2980.0000   2951.0000   2937.0000   2723.0000
    652.5500
   517.2000
   2683.0000   2926.0000   2753.0000   2690.0000   2858.0000   2800.0000
   2818.0000   3068.0000   2791.0000   2981.0000   2811.0000   2616.0000
   3220.0000   2866.0000   2875.0000   2912.0000   2821.0000   2691.0000
   2997.0000   2631.0000   2980.0000   2949.0000   2937.0000   2722.0000
    652.5500
   517.3000
   2682.0000   2925.0000   2753.0000   2691.0000   2858.0000   2801.0000
   2817.0000   3067.0000   2793.0000   2979.0000   2809.0000   2616.0000
   3221.0000   2868.0000   2876.0000   2909.0000   2822.0000   2690.0000
   2997.0000   2635.0000   2977.0000   2951.0000   2938.0000   2723.0000
    652.5500
   517.4000
   2683.0000   2925.0000   2753.0000   2692.0000   2858.0000   2801.0000
   2816.0000   3065.0000   2792.0000   2980.0000   2810.0000   2616.0000
   3220.0000   2868.0000   2876.0000   2909.0000   2823.0000   2690.0000
   2998.0000   2636.0000   2980.0000   2949.0000   2939.0000   2720.0000
    652.5750
   517.5000
   2685.0000   2926.0000   2752.0000   2693.0000   2860.0000   2798.0000
   2817.0000   3070.0000   2796.0000   2983.0000   2810.0000   2616.0000
   3220.0000   2867.0000   2879.0000   2909.0000   2821.0000   2693.0000
   2996.0000   2638.0000   2979.0000   2948.0000   2936.0000   2723.0000
    652.6000
   517.6000
   2683.0000   2927.0000   2753.0000   2691.0000   2859.0000   2800.0000
   2817.0000   3069.0000   2791.0000   2981.0000   2810.0000   2615.0000
   3221.0000   2870.0000   2876.0000   2909.0000   2822.0000   2690.0000
   3000.0000   2636.0000   2983.0000   2949.0000   2937.0000   2721.0000
    652.6000
   517.7000
   2684.0000   2925.0000   2753.0000   2692.0000   2858.0000   2797.0000
   2818.0000   3069.0000   2792.0000   2981.0000   2809.0000   2618.0000
   3221.0000   2868.0000   2874.0000   2911.0000   2823.0000   2689.0000
   2996.0000   2633.0000   2979.0000   2954.0000   2937.0000   2721.0000
    652.6000
   517.8000
   2682.0000   2926.0000   2752.0000   2692.0000   2858.0000   2801.0000
   2819.0000   3069.0000   2792.0000   2980.0000   2810.0000   2616.0000
   3220.0000   2867.0000   2875.0000   2909.0000   2822.0000   2691.0000
   2997.0000   2637.0000   2980.0000   2950.0000   2939.0000   2723.0000
    652.6000
   517.9000
   2684.0000   2925.0000   2753.0000   2691.0000   2858.0000   2798.0000
   2817.0000   3067.0000   2791.0000   2980.0000   2810.0000   2616.0000
   3219.0000   2868.0000   2876.0000   2910.0000   2822.0000   2683.0000
   2998.0000   2636.0000   2981.0000   2949.0000   2937.0000   2721.0000
    652.6000
   518.0000
   2684.0000   2924.0000   2754.0000   2693.0000   2857.0000   2798.0000
   2818.0000   3070.0000   2791.0000   2981.0000   2811.0000   2616.0000
   3219.0000   2865.0000   2875.0000   2909.0000   2821.0000   2691.0000
   2996.0000   2636.0000   2979.0000   2948.0000   2936.0000   2723.0000
    652.5750
   518.1000
   2685.0000   2926.0000   2753.0000   2691.0000   2857.0000   2800.0000
   2820.0000   3069.0000   2791.0000   2980.0000   2811.0000   2615.0000
   3222.0000   2866.0000   2876.0000   2910.0000   2822.0000   2684.0000
   2997.0000   2637.0000   2982.0000   2947.0000   2938.0000   2721.0000
    652.6250
