~Version Information
VERS.                      2.0: CWLS Log ASCII Standard - VERSION 2.0
WRAP.                      YES: Multiple lines per depth step
~Well Information Block
STRT.SEC               -1.8000: START DEPTH
STOP.SEC              599.7000: STOP DEPTH
STEP.SEC                0.1000: STEP
NULL.                -999.2500: NULL VALUE
COMP.                         : COMPANY
WELL.                         : WELL
FLD.                          : FIELD
LOC.                          : LOCATION
CNTY.                         : COUNTY
SRVC.                         : SERVICE COMPANY
DATE.          Fri Jan 03 08-09-13 2020: LOG DATE
UWI.                          : UNIQUE WELL ID
STAT.                         : STATE
~Curve Information Block
TIME.SEC           0 000 00 00: Elapsed Time
R01.IN                        : Radius 01
R02.IN                        : Radius 02
R03.IN                        : Radius 03
R04.IN                        : Radius 04
R05.IN                        : Radius 05
R06.IN                        : Radius 06
R07.IN                        : Radius 07
R08.IN                        : Radius 08
R09.IN                        : Radius 09
R10.IN                        : Radius 10
R11.IN                        : Radius 11
R12.IN                        : Radius 12
R13.IN                        : Radius 13
R14.IN                        : Radius 14
R15.IN                        : Radius 15
R16.IN                        : Radius 16
R17.IN                        : Radius 17
R18.IN                        : Radius 18
R19.IN                        : Radius 19
R20.IN                        : Radius 20
R21.IN                        : Radius 21
R22.IN                        : Radius 22
R23.IN                        : Radius 23
R24.IN                        : Radius 24
TEMP1.DEGF                    : TEMP1
~Parameter Information Block
~A  TIME   
# ...
   357.0000
   2148.0000   2329.0000   2239.0000   2153.0000   2284.0000   2281.0000
   2289.0000   2557.0000   2250.0000   2410.0000   2268.0000   2101.0000
   2659.0000   2336.0000   2298.0000   2363.0000   2296.0000   2161.0000
   2461.0000   2150.0000   2413.0000   2363.0000   2397.0000   2182.0000
    652.3750
   357.1000
   2148.0000   2328.0000   2237.0000   2152.0000   2284.0000   2277.0000
   2288.0000   2558.0000   2256.0000   2403.0000   2267.0000   2103.0000
   2662.0000   2334.0000   2297.0000   2365.0000   2297.0000   2162.0000
   2457.0000   2149.0000   2414.0000   2361.0000   2395.0000   2184.0000
    652.3500
   357.2000
   2148.0000   2328.0000   2238.0000   2152.0000   2283.0000   2279.0000
   2287.0000   2557.0000   2258.0000   2410.0000   2269.0000   2102.0000
   2660.0000   2336.0000   2296.0000   2365.0000   2294.0000   2163.0000
   2459.0000   2146.0000   2413.0000   2364.0000   2394.0000   2184.0000
    652.3500
   357.3000
   2150.0000   2329.0000   2237.0000   2153.0000   2285.0000   2277.0000
   2288.0000   2558.0000   2256.0000   2414.0000   2269.0000   2100.0000
   2660.0000   2336.0000   2295.0000   2360.0000   2296.0000   2163.0000
   2458.0000   2149.0000   2413.0000   2366.0000   2394.0000   2184.0000
    652.3250
   357.4000
   2147.0000   2329.0000   2238.0000   2152.0000   2284.0000   2278.0000
   2288.0000   2558.0000   2257.0000   2410.0000   2268.0000   2102.0000
   2659.0000   2334.0000   2301.0000   2360.0000   2295.0000   2161.0000
   2460.0000   2150.0000   2412.0000   2366.0000   2396.0000   2183.0000
    652.3250
   357.5000
   2147.0000   2329.0000   2238.0000   2152.0000   2285.0000   2276.0000
   2288.0000   2559.0000   2257.0000   2409.0000   2268.0000   2101.0000
   2660.0000   2334.0000   2298.0000   2363.0000   2294.0000   2163.0000
   2457.0000   2149.0000   2413.0000   2365.0000   2395.0000   2183.0000
    652.3250
   357.6000
   2148.0000   2329.0000   2237.0000   2151.0000   2284.0000   2277.0000
   2287.0000   2558.0000   2257.0000   2410.0000   2269.0000   2101.0000
   2652.0000   2333.0000   2296.0000   2363.0000   2297.0000   2160.0000
   2459.0000   2150.0000   2413.0000   2364.0000   2396.0000   2180.0000
    652.3250
   357.7000
   2148.0000   2330.0000   2237.0000   2153.0000   2284.0000   2279.0000
   2288.0000   2556.0000   2255.0000   2410.0000   2268.0000   2100.0000
   2660.0000   2335.0000   2298.0000   2361.0000   2295.0000   2162.0000
   2459.0000   2147.0000   2414.0000   2364.0000   2395.0000   2185.0000
    652.3250
   357.8000
   2147.0000   2328.0000   2238.0000   2151.0000   2284.0000   2278.0000
   2289.0000   2559.0000   2256.0000   2409.0000   2268.0000   2103.0000
   2661.0000   2332.0000   2297.0000   2362.0000   2296.0000   2162.0000
   2458.0000   2149.0000   2414.0000   2364.0000   2397.0000   2183.0000
    652.3500
   357.9000
   2147.0000   2329.0000   2236.0000   2151.0000   2284.0000   2279.0000
   2287.0000   2559.0000   2257.0000   2411.0000   2269.0000   2100.0000
   2661.0000   2337.0000   2300.0000   2362.0000   2297.0000   2162.0000
   2456.0000   2150.0000   2414.0000   2363.0000   2394.0000   2185.0000
    652.3250
   358.0000
   2147.0000   2329.0000   2238.0000   2151.0000   2283.0000   2278.0000
   2286.0000   2557.0000   2257.0000   2410.0000   2269.0000   2100.0000
   2657.0000   2333.0000   2297.0000   2364.0000   2297.0000   2162.0000
   2457.0000   2151.0000   2414.0000   2364.0000   2395.0000   2185.0000
    652.3000
   358.1000
   2149.0000   2329.0000   2237.0000   2151.0000   2286.0000   2278.0000
   2287.0000   2559.0000   2254.0000   2412.0000   2272.0000   2103.0000
   2661.0000   2335.0000   2296.0000   2362.0000   2295.0000   2161.0000
   2460.0000   2149.0000   2414.0000   2366.0000   2395.0000   2183.0000
    652.3000
   358.2000
   2150.0000   2330.0000   2237.0000   2153.0000   2287.0000   2276.0000
   2289.0000   2559.0000   2255.0000   2401.0000   2271.0000   2101.0000
   2661.0000   2334.0000   2298.0000   2354.0000   2296.0000   2163.0000
   2459.0000   2148.0000   2413.0000   2366.0000   2395.0000   2183.0000
    652.3000
   358.3000
   2148.0000   2331.0000   2235.0000   2152.0000   2285.0000   2280.0000
   2286.0000   2558.0000   2257.0000   2410.0000   2268.0000   2099.0000
   2662.0000   2332.0000   2297.0000   2362.0000   2295.0000   2163.0000
   2458.0000   2148.0000   2413.0000   2362.0000   2395.0000   2186.0000
    652.2750
   358.4000
   2149.0000   2328.0000   2237.0000   2154.0000   2286.0000   2278.0000
   2288.0000   2558.0000   2259.0000   2409.0000   2268.0000   2100.0000
   2661.0000   2336.0000   2297.0000   2363.0000   2297.0000   2162.0000
   2457.0000   2149.0000   2414.0000   2364.0000   2395.0000   2181.0000
    652.2750
   358.5000
   2149.0000   2329.0000   2237.0000   2151.0000   2286.0000   2277.0000
   2287.0000   2557.0000   2254.0000   2410.0000   2272.0000   2102.0000
   2659.0000   2335.0000   2297.0000   2361.0000   2296.0000   2160.0000
   2460.0000   2149.0000   2412.0000   2359.0000   2395.0000   2183.0000
    652.3000
   358.6000
   2149.0000   2331.0000   2236.0000   2151.0000   2285.0000   2277.0000
   2287.0000   2558.0000   2259.0000   2410.0000   2268.0000   2100.0000
   2661.0000   2337.0000   2295.0000   2362.0000   2295.0000   2163.0000
   2460.0000   2149.0000   2413.0000   2366.0000   2394.0000   2183.0000
    652.3250
   358.7000
   2148.0000   2330.0000   2236.0000   2152.0000   2285.0000   2278.0000
   2286.0000   2559.0000   2257.0000   2410.0000   2268.0000   2101.0000
   2662.0000   2333.0000   2296.0000   2361.0000   2294.0000   2162.0000
   2458.0000   2149.0000   2412.0000   2366.0000   2393.0000   2184.0000
    652.3000
   358.8000
   2150.0000   2329.0000   2237.0000   2152.0000   2285.0000   2277.0000
   2288.0000   2557.0000   2257.0000   2411.0000   2268.0000   2096.0000
   2661.0000   2337.0000   2297.0000   2363.0000   2297.0000   2163.0000
   2457.0000   2150.0000   2415.0000   2363.0000   2395.0000   2183.0000
    652.3000
   358.9000
   2149.0000   2330.0000   2236.0000   2152.0000   2285.0000   2278.0000
   2288.0000   2557.0000   2256.0000   2411.0000   2270.0000   2100.0000
   2659.0000   2337.0000   2297.0000   2365.0000   2296.0000   2162.0000
   2458.0000   2149.0000   2412.0000   2365.0000   2395.0000   2183.0000
    652.3250
   359.0000
   2149.0000   2329.0000   2237.0000   2151.0000   2285.0000   2279.0000
   2286.0000   2558.0000   2258.0000   2410.0000   2268.0000   2099.0000
   2663.0000   2334.0000   2297.0000   2362.0000   2294.0000   2160.0000
   2458.0000   2149.0000   2412.0000   2365.0000   2393.0000   2180.0000
    652.3500
   359.1000
   2148.0000   2330.0000   2235.0000   2152.0000   2285.0000   2278.0000
   2287.0000   2557.0000   2256.0000   2412.0000   2270.0000   2100.0000
   2660.0000   2335.0000   2294.0000   2362.0000   2295.0000   2163.0000
   2460.0000   2151.0000   2413.0000   2367.0000   2397.0000   2182.0000
    652.3500
   359.2000
   2149.0000   2330.0000   2237.0000   2152.0000   2284.0000   2277.0000
   2287.0000   2558.0000   2256.0000   2410.0000   2268.0000   2100.0000
   2660.0000   2335.0000   2298.0000   2363.0000   2297.0000   2161.0000
   2457.0000   2149.0000   2415.0000   2365.0000   2395.0000   2182.0000
    652.3750
   359.3000
   2148.0000   2330.0000   2236.0000   2151.0000   2285.0000   2278.0000
   2286.0000   2558.0000   2262.0000   2410.0000   2268.0000   2103.0000
   2660.0000   2338.0000   2296.0000   2360.0000   2295.0000   2161.0000
   2457.0000   2151.0000   2412.0000   2368.0000   2396.0000   2182.0000
    652.3750
   359.4000
   2150.0000   2328.0000   2236.0000   2150.0000   2285.0000   2279.0000
   2287.0000   2559.0000   2257.0000   2409.0000   2266.0000   2101.0000
   2660.0000   2335.0000   2298.0000   2363.0000   2296.0000   2164.0000
   2459.0000   2149.0000   2411.0000   2365.0000   2394.0000   2183.0000
    652.3500
   359.5000
   2149.0000   2331.0000   2238.0000   2151.0000   2285.0000   2279.0000
   2288.0000   2557.0000   2257.0000   2411.0000   2268.0000   2100.0000
   2658.0000   2333.0000   2296.0000   2365.0000   2295.0000   2162.0000
   2460.0000   2147.0000   2413.0000   2365.0000   2395.0000   2183.0000
    652.3500
