~Version Information
VERS.                      2.0: CWLS Log ASCII Standard - VERSION 2.0
WRAP.                      YES: Multiple lines per depth step
~Well Information Block
STRT.SEC               -1.8000: START DEPTH
STOP.SEC              599.7000: STOP DEPTH
STEP.SEC                0.1000: STEP
NULL.                -999.2500: NULL VALUE
COMP.                         : COMPANY
WELL.                         : WELL
FLD.                          : FIELD
LOC.                          : LOCATION
CNTY.                         : COUNTY
SRVC.                         : SERVICE COMPANY
DATE.          Fri Jan 03 08-09-13 2020: LOG DATE
UWI.                          : UNIQUE WELL ID
STAT.                         : STATE
~Curve Information Block
TIME.SEC           0 000 00 00: Elapsed Time
R01.IN                        : Radius 01
R02.IN                        : Radius 02
R03.IN                        : Radius 03
R04.IN                        : Radius 04
R05.IN                        : Radius 05
R06.IN                        : Radius 06
R07.IN                        : Radius 07
R08.IN                        : Radius 08
R09.IN                        : Radius 09
R10.IN                        : Radius 10
R11.IN                        : Radius 11
R12.IN                        : Radius 12
R13.IN                        : Radius 13
R14.IN                        : Radius 14
R15.IN                        : Radius 15
R16.IN                        : Radius 16
R17.IN                        : Radius 17
R18.IN                        : Radius 18
R19.IN                        : Radius 19
R20.IN                        : Radius 20
R21.IN                        : Radius 21
R22.IN                        : Radius 22
R23.IN                        : Radius 23
R24.IN                        : Radius 24
TEMP1.DEGF                    : TEMP1
~Parameter Information Block
~A  TIME   
# ...
   398.6000
   2485.0000   2700.0000   2556.0000   2488.0000   2644.0000   2601.0000
   2619.0000   2875.0000   2589.0000   2766.0000   2604.0000   2417.0000
   3007.0000   2663.0000   2653.0000   2702.0000   2619.0000   2485.0000
   2793.0000   2447.0000   2766.0000   2727.0000   2732.0000   2518.0000
    652.4250
   398.7000
   2484.0000   2704.0000   2555.0000   2489.0000   2645.0000   2605.0000
   2621.0000   2875.0000   2592.0000   2765.0000   2606.0000   2419.0000
   3007.0000   2664.0000   2654.0000   2698.0000   2617.0000   2488.0000
   2796.0000   2449.0000   2764.0000   2731.0000   2735.0000   2513.0000
    652.4250
   398.8000
   2485.0000   2702.0000   2556.0000   2488.0000   2646.0000   2603.0000
   2620.0000   2877.0000   2590.0000   2762.0000   2602.0000   2418.0000
   3007.0000   2661.0000   2652.0000   2700.0000   2618.0000   2492.0000
   2790.0000   2449.0000   2765.0000   2726.0000   2733.0000   2516.0000
    652.4000
   398.9000
   2484.0000   2703.0000   2556.0000   2489.0000   2646.0000   2604.0000
   2620.0000   2878.0000   2592.0000   2766.0000   2605.0000   2419.0000
   3007.0000   2664.0000   2650.0000   2702.0000   2619.0000   2490.0000
   2794.0000   2446.0000   2765.0000   2728.0000   2730.0000   2518.0000
    652.3750
   399.0000
   2482.0000   2701.0000   2559.0000   2489.0000   2643.0000   2603.0000
   2620.0000   2879.0000   2590.0000   2765.0000   2603.0000   2419.0000
   3006.0000   2660.0000   2652.0000   2699.0000   2618.0000   2488.0000
   2794.0000   2449.0000   2763.0000   2729.0000   2732.0000   2516.0000
    652.4000
   399.1000
   2485.0000   2700.0000   2556.0000   2489.0000   2646.0000   2604.0000
   2620.0000   2878.0000   2589.0000   2763.0000   2605.0000   2418.0000
   3007.0000   2662.0000   2651.0000   2703.0000   2617.0000   2489.0000
   2793.0000   2446.0000   2763.0000   2725.0000   2732.0000   2517.0000
    652.4000
   399.2000
   2483.0000   2702.0000   2557.0000   2489.0000   2644.0000   2606.0000
   2620.0000   2874.0000   2589.0000   2765.0000   2605.0000   2419.0000
   3006.0000   2663.0000   2653.0000   2699.0000   2619.0000   2488.0000
   2793.0000   2447.0000   2767.0000   2731.0000   2730.0000   2511.0000
    652.3750
   399.3000
   2483.0000   2701.0000   2557.0000   2489.0000   2643.0000   2601.0000
   2620.0000   2877.0000   2592.0000   2765.0000   2604.0000   2420.0000
   3008.0000   2661.0000   2652.0000   2700.0000   2618.0000   2487.0000
   2793.0000   2449.0000   2765.0000   2727.0000   2733.0000   2515.0000
    652.3500
   399.4000
   2483.0000   2702.0000   2554.0000   2488.0000   2644.0000   2607.0000
   2621.0000   2876.0000   2590.0000   2770.0000   2604.0000   2419.0000
   3006.0000   2661.0000   2652.0000   2701.0000   2620.0000   2489.0000
   2793.0000   2449.0000   2764.0000   2728.0000   2730.0000   2521.0000
    652.3500
   399.5000
   2482.0000   2703.0000   2557.0000   2487.0000   2644.0000   2603.0000
   2620.0000   2875.0000   2591.0000   2765.0000   2606.0000   2419.0000
   3006.0000   2660.0000   2655.0000   2701.0000   2620.0000   2488.0000
   2792.0000   2448.0000   2765.0000   2727.0000   2733.0000   2513.0000
    652.3750
   399.6000
   2484.0000   2702.0000   2555.0000   2491.0000   2645.0000   2605.0000
   2621.0000   2877.0000   2590.0000   2768.0000   2604.0000   2419.0000
   3007.0000   2665.0000   2654.0000   2696.0000   2620.0000   2489.0000
   2792.0000   2449.0000   2765.0000   2731.0000   2735.0000   2512.0000
    652.3750
   399.7000
   2483.0000   2703.0000   2556.0000   2488.0000   2644.0000   2603.0000
   2619.0000   2877.0000   2588.0000   2766.0000   2605.0000   2419.0000
   3005.0000   2660.0000   2654.0000   2700.0000   2618.0000   2489.0000
   2793.0000   2446.0000   2764.0000   2728.0000   2733.0000   2516.0000
    652.3750
   399.8000
   2485.0000   2700.0000   2556.0000   2486.0000   2644.0000   2604.0000
   2620.0000   2877.0000   2589.0000   2765.0000   2602.0000   2419.0000
   3006.0000   2660.0000   2652.0000   2702.0000   2619.0000   2489.0000
   2791.0000   2448.0000   2766.0000   2726.0000   2731.0000   2515.0000
    652.3500
   399.9000
   2483.0000   2701.0000   2555.0000   2490.0000   2642.0000   2606.0000
   2620.0000   2876.0000   2590.0000   2762.0000   2605.0000   2419.0000
   3006.0000   2661.0000   2652.0000   2692.0000   2618.0000   2488.0000
   2794.0000   2449.0000   2764.0000   2727.0000   2731.0000   2513.0000
    652.3750
   400.0000
   2482.0000   2702.0000   2558.0000   2489.0000   2643.0000   2602.0000
   2622.0000   2877.0000   2591.0000   2766.0000   2605.0000   2423.0000
   3007.0000   2662.0000   2650.0000   2701.0000   2619.0000   2489.0000
   2797.0000   2448.0000   2765.0000   2728.0000   2733.0000   2520.0000
    652.3750
   400.1000
   2483.0000   2702.0000   2555.0000   2487.0000   2644.0000   2605.0000
   2621.0000   2876.0000   2589.0000   2765.0000   2606.0000   2418.0000
   3007.0000   2664.0000   2655.0000   2702.0000   2616.0000   2488.0000
   2794.0000   2444.0000   2764.0000   2731.0000   2730.0000   2521.0000
    652.4000
   400.2000
   2483.0000   2701.0000   2557.0000   2488.0000   2644.0000   2604.0000
   2621.0000   2875.0000   2587.0000   2764.0000   2606.0000   2419.0000
   3007.0000   2662.0000   2655.0000   2700.0000   2617.0000   2490.0000
   2791.0000   2446.0000   2761.0000   2728.0000   2733.0000   2511.0000
    652.3750
   400.3000
   2482.0000   2702.0000   2556.0000   2488.0000   2643.0000   2602.0000
   2621.0000   2876.0000   2590.0000   2766.0000   2606.0000   2418.0000
   3004.0000   2662.0000   2654.0000   2700.0000   2616.0000   2489.0000
   2793.0000   2447.0000   2764.0000   2732.0000   2733.0000   2514.0000
    652.3750
   400.4000
   2482.0000   2701.0000   2555.0000   2488.0000   2644.0000   2603.0000
   2618.0000   2875.0000   2589.0000   2763.0000   2606.0000   2419.0000
   3007.0000   2662.0000   2652.0000   2700.0000   2614.0000   2488.0000
   2794.0000   2448.0000   2765.0000   2728.0000   2735.0000   2519.0000
    652.3500
   400.5000
   2483.0000   2703.0000   2557.0000   2487.0000   2645.0000   2602.0000
   2622.0000   2875.0000   2590.0000   2766.0000   2605.0000   2412.0000
   3006.0000   2661.0000   2652.0000   2699.0000   2617.0000   2488.0000
   2790.0000   2448.0000   2764.0000   2728.0000   2732.0000   2516.0000
    652.3500
   400.6000
   2483.0000   2702.0000   2556.0000   2487.0000   2643.0000   2604.0000
   2621.0000   2877.0000   2590.0000   2766.0000   2606.0000   2417.0000
   3005.0000   2665.0000   2653.0000   2702.0000   2618.0000   2488.0000
   2795.0000   2449.0000   2765.0000   2732.0000   2731.0000   2515.0000
    652.3500
   400.7000
   2483.0000   2703.0000   2556.0000   2489.0000   2644.0000   2605.0000
   2618.0000   2877.0000   2591.0000   2765.0000   2608.0000   2418.0000
   3007.0000   2660.0000   2652.0000   2699.0000   2616.0000   2488.0000
   2793.0000   2446.0000   2764.0000   2727.0000   2732.0000   2515.0000
    652.4000
   400.8000
   2483.0000   2703.0000   2556.0000   2487.0000   2644.0000   2605.0000
   2620.0000   2875.0000   2591.0000   2767.0000   2607.0000   2418.0000
   3005.0000   2664.0000   2653.0000   2696.0000   2618.0000   2489.0000
   2790.0000   2443.0000   2764.0000   2730.0000   2735.0000   2515.0000
    652.4000
   400.9000
   2482.0000   2700.0000   2558.0000   2488.0000   2643.0000   2601.0000
   2620.0000   2879.0000   2590.0000   2767.0000   2604.0000   2419.0000
   3008.0000   2659.0000   2650.0000   2703.0000   2620.0000   2488.0000
   2793.0000   2446.0000   2760.0000   2728.0000   2732.0000   2517.0000
    652.4000
   401.0000
   2482.0000   2702.0000   2555.0000   2487.0000   2645.0000   2605.0000
   2620.0000   2876.0000   2590.0000   2766.0000   2607.0000   2418.0000
   3008.0000   2661.0000   2657.0000   2697.0000   2616.0000   2489.0000
   2792.0000   2446.0000   2764.0000   2729.0000   2734.0000   2514.0000
    652.4000
   401.1000
   2483.0000   2702.0000   2557.0000   2489.0000   2644.0000   2605.0000
   2620.0000   2876.0000   2591.0000   2767.0000   2606.0000   2420.0000
   3007.0000   2665.0000   2656.0000   2702.0000   2619.0000   2488.0000
   2791.0000   2446.0000   2766.0000   2731.0000   2731.0000   2519.0000
    652.4250
