~Version Information
VERS.                      2.0: CWLS Log ASCII Standard - VERSION 2.0
WRAP.                      YES: Multiple lines per depth step
~Well Information Block
STRT.SEC               -1.8000: START DEPTH
STOP.SEC              599.7000: STOP DEPTH
STEP.SEC                0.1000: STEP
NULL.                -999.2500: NULL VALUE
COMP.                         : COMPANY
WELL.                         : WELL
FLD.                          : FIELD
LOC.                          : LOCATION
CNTY.                         : COUNTY
SRVC.                         : SERVICE COMPANY
DATE.          Fri Jan 03 08-09-13 2020: LOG DATE
UWI.                          : UNIQUE WELL ID
STAT.                         : STATE
~Curve Information Block
TIME.SEC           0 000 00 00: Elapsed Time
R01.IN                        : Radius 01
R02.IN                        : Radius 02
R03.IN                        : Radius 03
R04.IN                        : Radius 04
R05.IN                        : Radius 05
R06.IN                        : Radius 06
R07.IN                        : Radius 07
R08.IN                        : Radius 08
R09.IN                        : Radius 09
R10.IN                        : Radius 10
R11.IN                        : Radius 11
R12.IN                        : Radius 12
R13.IN                        : Radius 13
R14.IN                        : Radius 14
R15.IN                        : Radius 15
R16.IN                        : Radius 16
R17.IN                        : Radius 17
R18.IN                        : Radius 18
R19.IN                        : Radius 19
R20.IN                        : Radius 20
R21.IN                        : Radius 21
R22.IN                        : Radius 22
R23.IN                        : Radius 23
R24.IN                        : Radius 24
TEMP1.DEGF                    : TEMP1
~Parameter Information Block
~A  TIME   
# ...
   596.2000
   2683.0000   2925.0000   2752.0000   2692.0000   2858.0000   2801.0000
   2817.0000   3067.0000   2793.0000   2981.0000   2807.0000   2615.0000
   3220.0000   2867.0000   2877.0000   2910.0000   2823.0000   2690.0000
   2998.0000   2637.0000   2979.0000   2950.0000   2936.0000   2722.0000
    652.7500
   596.3000
   2683.0000   2926.0000   2752.0000   2692.0000   2857.0000   2801.0000
   2817.0000   3067.0000   2786.0000   2980.0000   2811.0000   2615.0000
   3220.0000   2870.0000   2875.0000   2909.0000   2822.0000   2690.0000
   2995.0000   2636.0000   2981.0000   2949.0000   2938.0000   2722.0000
    652.7250
   596.4000
   2685.0000   2924.0000   2753.0000   2692.0000   2860.0000   2797.0000
   2817.0000   3070.0000   2790.0000   2981.0000   2811.0000   2616.0000
   3219.0000   2868.0000   2875.0000   2910.0000   2821.0000   2690.0000
   2999.0000   2635.0000   2980.0000   2950.0000   2937.0000   2722.0000
    652.7500
   596.5000
   2684.0000   2926.0000   2753.0000   2692.0000   2859.0000   2800.0000
   2816.0000   3070.0000   2791.0000   2981.0000   2811.0000   2617.0000
   3218.0000   2865.0000   2875.0000   2910.0000   2822.0000   2689.0000
   2998.0000   2637.0000   2980.0000   2948.0000   2938.0000   2723.0000
    652.7500
   596.6000
   2684.0000   2925.0000   2753.0000   2693.0000   2858.0000   2797.0000
   2818.0000   3069.0000   2790.0000   2981.0000   2810.0000   2617.0000
   3220.0000   2865.0000   2875.0000   2911.0000   2818.0000   2692.0000
   2998.0000   2635.0000   2980.0000   2946.0000   2940.0000   2722.0000
    652.7000
   596.7000
   2684.0000   2925.0000   2752.0000   2692.0000   2858.0000   2801.0000
   2817.0000   3068.0000   2791.0000   2979.0000   2810.0000   2615.0000
   3219.0000   2869.0000   2875.0000   2910.0000   2822.0000   2691.0000
   2997.0000   2637.0000   2979.0000   2948.0000   2939.0000   2723.0000
    652.7000
   596.8000
   2683.0000   2927.0000   2753.0000   2691.0000   2858.0000   2799.0000
   2817.0000   3068.0000   2792.0000   2979.0000   2810.0000   2616.0000
   3213.0000   2866.0000   2875.0000   2910.0000   2823.0000   2689.0000
   2997.0000   2637.0000   2980.0000   2948.0000   2937.0000   2722.0000
    652.7000
   596.9000
   2683.0000   2926.0000   2754.0000   2693.0000   2858.0000   2797.0000
   2818.0000   3066.0000   2792.0000   2980.0000   2812.0000   2614.0000
   3219.0000   2868.0000   2875.0000   2910.0000   2821.0000   2690.0000
   3000.0000   2637.0000   2977.0000   2948.0000   2938.0000   2723.0000
    652.7000
   597.0000
   2684.0000   2927.0000   2754.0000   2692.0000   2858.0000   2801.0000
   2816.0000   3070.0000   2792.0000   2980.0000   2808.0000   2616.0000
   3224.0000   2868.0000   2876.0000   2908.0000   2821.0000   2690.0000
   2999.0000   2636.0000   2982.0000   2951.0000   2938.0000   2721.0000
    652.7250
   597.1000
   2685.0000   2925.0000   2752.0000   2694.0000   2860.0000   2797.0000
   2816.0000   3069.0000   2794.0000   2982.0000   2810.0000   2615.0000
   3219.0000   2866.0000   2875.0000   2910.0000   2821.0000   2691.0000
   3000.0000   2632.0000   2980.0000   2949.0000   2938.0000   2722.0000
    652.7000
   597.2000
   2686.0000   2926.0000   2753.0000   2690.0000   2857.0000   2800.0000
   2818.0000   3068.0000   2791.0000   2980.0000   2814.0000   2615.0000
   3220.0000   2869.0000   2875.0000   2909.0000   2823.0000   2691.0000
   2995.0000   2635.0000   2981.0000   2950.0000   2938.0000   2721.0000
    652.6750
   597.3000
   2683.0000   2925.0000   2754.0000   2692.0000   2858.0000   2798.0000
   2819.0000   3068.0000   2791.0000   2985.0000   2809.0000   2618.0000
   3222.0000   2867.0000   2875.0000   2910.0000   2821.0000   2691.0000
   2999.0000   2637.0000   2981.0000   2949.0000   2938.0000   2720.0000
    652.7000
   597.4000
   2683.0000   2926.0000   2753.0000   2691.0000   2858.0000   2801.0000
   2815.0000   3071.0000   2793.0000   2980.0000   2810.0000   2618.0000
   3223.0000   2869.0000   2876.0000   2909.0000   2822.0000   2691.0000
   2997.0000   2638.0000   2979.0000   2952.0000   2939.0000   2721.0000
    652.7250
   597.5000
   2685.0000   2926.0000   2752.0000   2690.0000   2857.0000   2798.0000
   2817.0000   3068.0000   2791.0000   2981.0000   2814.0000   2616.0000
   3217.0000   2865.0000   2876.0000   2909.0000   2823.0000   2690.0000
   2999.0000   2636.0000   2981.0000   2950.0000   2936.0000   2723.0000
    652.7500
   597.6000
   2684.0000   2925.0000   2754.0000   2693.0000   2858.0000   2797.0000
   2819.0000   3068.0000   2792.0000   2981.0000   2810.0000   2615.0000
   3219.0000   2871.0000   2875.0000   2909.0000   2821.0000   2691.0000
   2996.0000   2636.0000   2978.0000   2949.0000   2938.0000   2722.0000
    652.7250
   597.7000
   2685.0000   2926.0000   2752.0000   2690.0000   2858.0000   2799.0000
   2818.0000   3069.0000   2791.0000   2980.0000   2814.0000   2614.0000
   3220.0000   2869.0000   2876.0000   2909.0000   2821.0000   2693.0000
   2996.0000   2637.0000   2981.0000   2951.0000   2939.0000   2722.0000
    652.7500
   597.8000
   -999.2500   -999.2500   -999.2500   -999.2500   -999.2500   -999.2500
   -999.2500   -999.2500   -999.2500   -999.2500   -999.2500   -999.2500
   -999.2500   -999.2500   -999.2500   -999.2500   -999.2500   -999.2500
   -999.2500   -999.2500   -999.2500   -999.2500   -999.2500   -999.2500
   -999.2500
   597.9000
   -999.2500   -999.2500   -999.2500   -999.2500   -999.2500   -999.2500
   -999.2500   -999.2500   -999.2500   -999.2500   -999.2500   -999.2500
   -999.2500   -999.2500   -999.2500   -999.2500   -999.2500   -999.2500
   -999.2500   -999.2500   -999.2500   -999.2500   -999.2500   -999.2500
   -999.2500
   598.0000
   -999.2500   -999.2500   -999.2500   -999.2500   -999.2500   -999.2500
   -999.2500   -999.2500   -999.2500   -999.2500   -999.2500   -999.2500
   -999.2500   -999.2500   -999.2500   -999.2500   -999.2500   -999.2500
   -999.2500   -999.2500   -999.2500   -999.2500   -999.2500   -999.2500
   -999.2500
   598.1000
   -999.2500   -999.2500   -999.2500   -999.2500   -999.2500   -999.2500
   -999.2500   -999.2500   -999.2500   -999.2500   -999.2500   -999.2500
   -999.2500   -999.2500   -999.2500   -999.2500   -999.2500   -999.2500
   -999.2500   -999.2500   -999.2500   -999.2500   -999.2500   -999.2500
   -999.2500
   598.2000
   -999.2500   -999.2500   -999.2500   -999.2500   -999.2500   -999.2500
   -999.2500   -999.2500   -999.2500   -999.2500   -999.2500   -999.2500
   -999.2500   -999.2500   -999.2500   -999.2500   -999.2500   -999.2500
   -999.2500   -999.2500   -999.2500   -999.2500   -999.2500   -999.2500
   -999.2500
   598.3000
   -999.2500   -999.2500   -999.2500   -999.2500   -999.2500   -999.2500
   -999.2500   -999.2500   -999.2500   -999.2500   -999.2500   -999.2500
   -999.2500   -999.2500   -999.2500   -999.2500   -999.2500   -999.2500
   -999.2500   -999.2500   -999.2500   -999.2500   -999.2500   -999.2500
   -999.2500
   598.4000
   -999.2500   -999.2500   -999.2500   -999.2500   -999.2500   -999.2500
   -999.2500   -999.2500   -999.2500   -999.2500   -999.2500   -999.2500
   -999.2500   -999.2500   -999.2500   -999.2500   -999.2500   -999.2500
   -999.2500   -999.2500   -999.2500   -999.2500   -999.2500   -999.2500
   -999.2500
   598.5000
   -999.2500   -999.2500   -999.2500   -999.2500   -999.2500   -999.2500
   -999.2500   -999.2500   -999.2500   -999.2500   -999.2500   -999.2500
   -999.2500   -999.2500   -999.2500   -999.2500   -999.2500   -999.2500
   -999.2500   -999.2500   -999.2500   -999.2500   -999.2500   -999.2500
   -999.2500
   598.6000
   -999.2500   -999.2500   -999.2500   -999.2500   -999.2500   -999.2500
   -999.2500   -999.2500   -999.2500   -999.2500   -999.2500   -999.2500
   -999.2500   -999.2500   -999.2500   -999.2500   -999.2500   -999.2500
   -999.2500   -999.2500   -999.2500   -999.2500   -999.2500   -999.2500
   -999.2500
   598.7000
   -999.2500   -999.2500   -999.2500   -999.2500   -999.2500   -999.2500
   -999.2500   -999.2500   -999.2500   -999.2500   -999.2500   -999.2500
   -999.2500   -999.2500   -999.2500   -999.2500   -999.2500   -999.2500
   -999.2500   -999.2500   -999.2500   -999.2500   -999.2500   -999.2500
   -999.2500
