~Version Information
VERS.                      2.0: CWLS Log ASCII Standard - VERSION 2.0
WRAP.                      YES: Multiple lines per depth step
~Well Information Block
STRT.SEC               -1.8000: START DEPTH
STOP.SEC              599.7000: STOP DEPTH
STEP.SEC                0.1000: STEP
NULL.                -999.2500: NULL VALUE
COMP.                         : COMPANY
WELL.                         : WELL
FLD.                          : FIELD
LOC.                          : LOCATION
CNTY.                         : COUNTY
SRVC.                         : SERVICE COMPANY
DATE.          Fri Jan 03 08-09-13 2020: LOG DATE
UWI.                          : UNIQUE WELL ID
STAT.                         : STATE
~Curve Information Block
TIME.SEC           0 000 00 00: Elapsed Time
R01.IN                        : Radius 01
R02.IN                        : Radius 02
R03.IN                        : Radius 03
R04.IN                        : Radius 04
R05.IN                        : Radius 05
R06.IN                        : Radius 06
R07.IN                        : Radius 07
R08.IN                        : Radius 08
R09.IN                        : Radius 09
R10.IN                        : Radius 10
R11.IN                        : Radius 11
R12.IN                        : Radius 12
R13.IN                        : Radius 13
R14.IN                        : Radius 14
R15.IN                        : Radius 15
R16.IN                        : Radius 16
R17.IN                        : Radius 17
R18.IN                        : Radius 18
R19.IN                        : Radius 19
R20.IN                        : Radius 20
R21.IN                        : Radius 21
R22.IN                        : Radius 22
R23.IN                        : Radius 23
R24.IN                        : Radius 24
TEMP1.DEGF                    : TEMP1
~Parameter Information Block
~A  TIME   
# ...
   240.0000
   1646.0000   1771.0000   1743.0000   1634.0000   1730.0000   1785.0000
   1770.0000   2065.0000   1737.0000   1859.0000   1733.0000   1619.0000
   2108.0000   1826.0000   1732.0000   1826.0000   1782.0000   1657.0000
   1941.0000   1700.0000   1873.0000   1810.0000   1885.0000   1682.0000
    651.9750
   240.1000
   1647.0000   1768.0000   1744.0000   1633.0000   1730.0000   1783.0000
   1771.0000   2065.0000   1736.0000   1860.0000   1731.0000   1620.0000
   2106.0000   1827.0000   1733.0000   1828.0000   1784.0000   1657.0000
   1940.0000   1697.0000   1876.0000   1811.0000   1885.0000   1682.0000
    651.9750
   240.2000
   1645.0000   1770.0000   1743.0000   1635.0000   1730.0000   1783.0000
   1771.0000   2065.0000   1736.0000   1859.0000   1735.0000   1619.0000
   2107.0000   1828.0000   1734.0000   1821.0000   1784.0000   1659.0000
   1939.0000   1698.0000   1875.0000   1809.0000   1887.0000   1682.0000
    651.9750
   240.3000
   1646.0000   1769.0000   1742.0000   1635.0000   1730.0000   1786.0000
   1770.0000   2066.0000   1737.0000   1859.0000   1734.0000   1618.0000
   2104.0000   1821.0000   1733.0000   1826.0000   1786.0000   1661.0000
   1942.0000   1697.0000   1876.0000   1812.0000   1885.0000   1683.0000
    652.0000
   240.4000
   1645.0000   1770.0000   1743.0000   1634.0000   1731.0000   1783.0000
   1771.0000   2065.0000   1737.0000   1858.0000   1732.0000   1616.0000
   2110.0000   1827.0000   1732.0000   1828.0000   1784.0000   1660.0000
   1940.0000   1697.0000   1874.0000   1811.0000   1884.0000   1681.0000
    652.0000
   240.5000
   1643.0000   1769.0000   1745.0000   1635.0000   1730.0000   1785.0000
   1772.0000   2066.0000   1738.0000   1858.0000   1733.0000   1619.0000
   2107.0000   1826.0000   1732.0000   1828.0000   1785.0000   1660.0000
   1941.0000   1696.0000   1875.0000   1811.0000   1886.0000   1683.0000
    652.0000
   240.6000
   1645.0000   1770.0000   1743.0000   1635.0000   1730.0000   1782.0000
   1771.0000   2064.0000   1737.0000   1858.0000   1733.0000   1617.0000
   2108.0000   1827.0000   1732.0000   1826.0000   1784.0000   1659.0000
   1939.0000   1697.0000   1875.0000   1812.0000   1884.0000   1682.0000
    652.0250
   240.7000
   1645.0000   1769.0000   1745.0000   1635.0000   1729.0000   1784.0000
   1772.0000   2064.0000   1738.0000   1858.0000   1731.0000   1617.0000
   2108.0000   1825.0000   1735.0000   1827.0000   1785.0000   1660.0000
   1941.0000   1697.0000   1874.0000   1809.0000   1886.0000   1683.0000
    652.0500
   240.8000
   1648.0000   1768.0000   1744.0000   1633.0000   1728.0000   1784.0000
   1772.0000   2065.0000   1736.0000   1859.0000   1733.0000   1620.0000
   2107.0000   1827.0000   1734.0000   1829.0000   1786.0000   1659.0000
   1938.0000   1698.0000   1875.0000   1810.0000   1885.0000   1681.0000
    652.0250
   240.9000
   1644.0000   1769.0000   1745.0000   1634.0000   1729.0000   1783.0000
   1771.0000   2063.0000   1737.0000   1853.0000   1733.0000   1619.0000
   2109.0000   1825.0000   1733.0000   1827.0000   1785.0000   1659.0000
   1937.0000   1695.0000   1873.0000   1809.0000   1886.0000   1681.0000
    652.0750
   241.0000
   1646.0000   1769.0000   1744.0000   1635.0000   1731.0000   1784.0000
   1771.0000   2066.0000   1737.0000   1858.0000   1732.0000   1617.0000
   2108.0000   1828.0000   1734.0000   1826.0000   1784.0000   1660.0000
   1934.0000   1699.0000   1876.0000   1812.0000   1885.0000   1684.0000
    652.1000
   241.1000
   1645.0000   1768.0000   1744.0000   1633.0000   1729.0000   1784.0000
   1772.0000   2064.0000   1736.0000   1853.0000   1733.0000   1621.0000
   2108.0000   1823.0000   1733.0000   1827.0000   1785.0000   1660.0000
   1940.0000   1697.0000   1873.0000   1810.0000   1884.0000   1686.0000
    652.1000
   241.2000
   1645.0000   1769.0000   1745.0000   1634.0000   1729.0000   1784.0000
   1772.0000   2065.0000   1737.0000   1858.0000   1732.0000   1620.0000
   2107.0000   1825.0000   1733.0000   1827.0000   1785.0000   1659.0000
   1941.0000   1699.0000   1876.0000   1811.0000   1886.0000   1683.0000
    652.1000
   241.3000
   1647.0000   1769.0000   1744.0000   1632.0000   1729.0000   1786.0000
   1771.0000   2063.0000   1737.0000   1860.0000   1727.0000   1619.0000
   2105.0000   1826.0000   1734.0000   1827.0000   1785.0000   1660.0000
   1938.0000   1700.0000   1874.0000   1810.0000   1886.0000   1682.0000
    652.0750
   241.4000
   1645.0000   1769.0000   1744.0000   1634.0000   1729.0000   1784.0000
   1772.0000   2063.0000   1736.0000   1858.0000   1732.0000   1618.0000
   2108.0000   1826.0000   1734.0000   1826.0000   1786.0000   1659.0000
   1940.0000   1697.0000   1873.0000   1810.0000   1885.0000   1683.0000
    652.1000
   241.5000
   1645.0000   1769.0000   1745.0000   1635.0000   1730.0000   1784.0000
   1773.0000   2065.0000   1738.0000   1857.0000   1732.0000   1620.0000
   2106.0000   1826.0000   1733.0000   1830.0000   1785.0000   1656.0000
   1939.0000   1694.0000   1875.0000   1810.0000   1885.0000   1683.0000
    652.1250
   241.6000
   1645.0000   1768.0000   1744.0000   1635.0000   1728.0000   1784.0000
   1771.0000   2064.0000   1737.0000   1860.0000   1733.0000   1619.0000
   2107.0000   1824.0000   1736.0000   1826.0000   1783.0000   1659.0000
   1939.0000   1698.0000   1877.0000   1807.0000   1885.0000   1683.0000
    652.1500
   241.7000
   1645.0000   1770.0000   1744.0000   1633.0000   1730.0000   1786.0000
   1772.0000   2064.0000   1737.0000   1858.0000   1735.0000   1622.0000
   2106.0000   1823.0000   1734.0000   1827.0000   1784.0000   1661.0000
   1938.0000   1698.0000   1875.0000   1811.0000   1885.0000   1683.0000
    652.1000
   241.8000
   1645.0000   1768.0000   1744.0000   1635.0000   1730.0000   1784.0000
   1772.0000   2065.0000   1736.0000   1857.0000   1733.0000   1621.0000
   2109.0000   1826.0000   1733.0000   1826.0000   1784.0000   1657.0000
   1939.0000   1698.0000   1874.0000   1808.0000   1886.0000   1684.0000
    652.1000
   241.9000
   1645.0000   1770.0000   1745.0000   1632.0000   1730.0000   1784.0000
   1770.0000   2064.0000   1735.0000   1859.0000   1731.0000   1616.0000
   2106.0000   1828.0000   1735.0000   1824.0000   1784.0000   1658.0000
   1939.0000   1697.0000   1874.0000   1811.0000   1885.0000   1678.0000
    652.0500
   242.0000
   1645.0000   1770.0000   1744.0000   1632.0000   1730.0000   1786.0000
   1771.0000   2063.0000   1735.0000   1858.0000   1734.0000   1618.0000
   2107.0000   1826.0000   1735.0000   1827.0000   1786.0000   1658.0000
   1939.0000   1698.0000   1874.0000   1810.0000   1887.0000   1680.0000
    652.0250
   242.1000
   1645.0000   1768.0000   1745.0000   1636.0000   1729.0000   1784.0000
   1772.0000   2064.0000   1737.0000   1859.0000   1732.0000   1618.0000
   2107.0000   1825.0000   1737.0000   1828.0000   1785.0000   1656.0000
   1940.0000   1698.0000   1874.0000   1809.0000   1887.0000   1683.0000
    652.0000
   242.2000
   1645.0000   1770.0000   1744.0000   1634.0000   1729.0000   1786.0000
   1770.0000   2064.0000   1735.0000   1858.0000   1734.0000   1619.0000
   2107.0000   1827.0000   1734.0000   1823.0000   1783.0000   1658.0000
   1940.0000   1701.0000   1875.0000   1811.0000   1887.0000   1682.0000
    651.9500
   242.3000
   1645.0000   1769.0000   1744.0000   1635.0000   1730.0000   1785.0000
   1772.0000   2064.0000   1737.0000   1856.0000   1734.0000   1618.0000
   2106.0000   1826.0000   1736.0000   1826.0000   1783.0000   1659.0000
   1941.0000   1696.0000   1876.0000   1812.0000   1886.0000   1682.0000
    651.9500
   242.4000
   1645.0000   1769.0000   1741.0000   1634.0000   1730.0000   1782.0000
   1771.0000   2065.0000   1736.0000   1859.0000   1733.0000   1620.0000
   2106.0000   1826.0000   1734.0000   1825.0000   1783.0000   1660.0000
   1940.0000   1693.0000   1875.0000   1812.0000   1885.0000   1682.0000
    651.9000
   242.5000
   1645.0000   1767.0000   1743.0000   1631.0000   1729.0000   1785.0000
   1772.0000   2063.0000   1735.0000   1856.0000   1733.0000   1620.0000
   2104.0000   1827.0000   1734.0000   1825.0000   1783.0000   1657.0000
   1941.0000   1699.0000   1874.0000   1813.0000   1887.0000   1684.0000
    651.9250
