~Version Information
VERS.                      2.0: CWLS Log ASCII Standard - VERSION 2.0
WRAP.                      YES: Multiple lines per depth step
~Well Information Block
STRT.SEC               -1.8000: START DEPTH
STOP.SEC              599.7000: STOP DEPTH
STEP.SEC                0.1000: STEP
NULL.                -999.2500: NULL VALUE
COMP.                         : COMPANY
WELL.                         : WELL
FLD.                          : FIELD
LOC.                          : LOCATION
CNTY.                         : COUNTY
SRVC.                         : SERVICE COMPANY
DATE.          Fri Jan 03 08-09-13 2020: LOG DATE
UWI.                          : UNIQUE WELL ID
STAT.                         : STATE
~Curve Information Block
TIME.SEC           0 000 00 00: Elapsed Time
R01.IN                        : Radius 01
R02.IN                        : Radius 02
R03.IN                        : Radius 03
R04.IN                        : Radius 04
R05.IN                        : Radius 05
R06.IN                        : Radius 06
R07.IN                        : Radius 07
R08.IN                        : Radius 08
R09.IN                        : Radius 09
R10.IN                        : Radius 10
R11.IN                        : Radius 11
R12.IN                        : Radius 12
R13.IN                        : Radius 13
R14.IN                        : Radius 14
R15.IN                        : Radius 15
R16.IN                        : Radius 16
R17.IN                        : Radius 17
R18.IN                        : Radius 18
R19.IN                        : Radius 19
R20.IN                        : Radius 20
R21.IN                        : Radius 21
R22.IN                        : Radius 22
R23.IN                        : Radius 23
R24.IN                        : Radius 24
TEMP1.DEGF                    : TEMP1
~Parameter Information Block
~A  TIME   
# ...
     0.8000
    619.0000    655.0000    761.0000    605.0000    617.0000    826.0000
    731.0000   1080.0000    679.0000    780.0000    667.0000    692.0000
   1013.0000    842.0000    616.0000    759.0000    768.0000    651.0000
    894.0000    790.0000    753.0000    698.0000    840.0000    676.0000
    472.3000
     0.9000
    619.0000    654.0000    762.0000    603.0000    619.0000    819.0000
    731.0000   1080.0000    678.0000    775.0000    669.0000    693.0000
   1010.0000    840.0000    614.0000    759.0000    768.0000    652.0000
    891.0000    791.0000    753.0000    697.0000    841.0000    678.0000
    488.5750
     1.0000
    619.0000    653.0000    763.0000    605.0000    616.0000    825.0000
    732.0000   1080.0000    679.0000    780.0000    667.0000    692.0000
   1011.0000    842.0000    614.0000    761.0000    771.0000    652.0000
    891.0000    789.0000    755.0000    697.0000    841.0000    675.0000
    504.8500
     1.1000
    620.0000    654.0000    761.0000    603.0000    615.0000    820.0000
    732.0000   1081.0000    678.0000    783.0000    670.0000    693.0000
   1011.0000    840.0000    613.0000    760.0000    770.0000    654.0000
    892.0000    792.0000    755.0000    692.0000    843.0000    679.0000
    521.1250
     1.2000
    621.0000    655.0000    762.0000    602.0000    615.0000    824.0000
    731.0000   1079.0000    679.0000    783.0000    669.0000    693.0000
   1011.0000    840.0000    615.0000    758.0000    770.0000    650.0000
    893.0000    790.0000    754.0000    695.0000    842.0000    677.0000
    537.4000
     1.3000
    618.0000    655.0000    763.0000    606.0000    616.0000    824.0000
    729.0000   1081.0000    679.0000    778.0000    668.0000    693.0000
   1010.0000    840.0000    615.0000    759.0000    769.0000    650.0000
    895.0000    791.0000    750.0000    697.0000    843.0000    674.0000
    553.6750
     1.4000
    617.0000    654.0000    762.0000    604.0000    616.0000    821.0000
    729.0000   1080.0000    679.0000    777.0000    668.0000    692.0000
   1004.0000    838.0000    614.0000    758.0000    771.0000    652.0000
    892.0000    791.0000    754.0000    695.0000    844.0000    674.0000
    569.9500
     1.5000
    618.0000    655.0000    763.0000    604.0000    617.0000    825.0000
    731.0000   1079.0000    678.0000    777.0000    669.0000    693.0000
   1010.0000    839.0000    617.0000    760.0000    770.0000    652.0000
    893.0000    791.0000    753.0000    697.0000    842.0000    676.0000
    586.2250
     1.6000
    620.0000    654.0000    763.0000    602.0000    616.0000    820.0000
    731.0000   1081.0000    679.0000    786.0000    671.0000    693.0000
   1011.0000    841.0000    614.0000    759.0000    769.0000    652.0000
    894.0000    791.0000    752.0000    697.0000    842.0000    677.0000
    602.5000
     1.7000
    618.0000    654.0000    764.0000    605.0000    616.0000    825.0000
    732.0000   1080.0000    679.0000    779.0000    667.0000    694.0000
   1012.0000    841.0000    614.0000    761.0000    771.0000    652.0000
    893.0000    788.0000    754.0000    696.0000    840.0000    676.0000
    618.8000
     1.8000
    617.0000    655.0000    763.0000    604.0000    616.0000    820.0000
    730.0000   1077.0000    678.0000    777.0000    666.0000    692.0000
   1009.0000    840.0000    615.0000    759.0000    770.0000    652.0000
    892.0000    791.0000    755.0000    692.0000    844.0000    677.0000
    635.1000
     1.9000
    618.0000    655.0000    763.0000    603.0000    617.0000    825.0000
    731.0000   1079.0000    678.0000    778.0000    669.0000    692.0000
   1008.0000    839.0000    615.0000    760.0000    770.0000    652.0000
    895.0000    784.0000    753.0000    696.0000    842.0000    678.0000
    651.3750
     2.0000
    618.0000    654.0000    762.0000    604.0000    616.0000    826.0000
    732.0000   1079.0000    679.0000    779.0000    668.0000    690.0000
   1006.0000    843.0000    614.0000    759.0000    768.0000    653.0000
    895.0000    791.0000    754.0000    699.0000    842.0000    677.0000
    651.3000
     2.1000
    618.0000    655.0000    762.0000    603.0000    616.0000    820.0000
    730.0000   1079.0000    678.0000    777.0000    669.0000    693.0000
   1010.0000    842.0000    615.0000    763.0000    769.0000    653.0000
    891.0000    790.0000    752.0000    695.0000    843.0000    675.0000
    651.3000
     2.2000
    620.0000    654.0000    761.0000    604.0000    618.0000    824.0000
    732.0000   1079.0000    678.0000    778.0000    667.0000    693.0000
   1010.0000    841.0000    613.0000    757.0000    767.0000    650.0000
    893.0000    791.0000    754.0000    698.0000    841.0000    675.0000
    651.2750
     2.3000
    619.0000    656.0000    764.0000    604.0000    617.0000    822.0000
    730.0000   1080.0000    677.0000    778.0000    667.0000    694.0000
   1009.0000    837.0000    614.0000    757.0000    768.0000    652.0000
    894.0000    789.0000    755.0000    696.0000    841.0000    678.0000
    651.2750
     2.4000
    620.0000    656.0000    762.0000    605.0000    617.0000    825.0000
    731.0000   1081.0000    679.0000    777.0000    666.0000    692.0000
   1013.0000    843.0000    615.0000    759.0000    768.0000    652.0000
    895.0000    792.0000    751.0000    699.0000    841.0000    677.0000
    651.2500
     2.5000
    619.0000    652.0000    762.0000    605.0000    616.0000    821.0000
    730.0000   1081.0000    678.0000    778.0000    667.0000    693.0000
   1010.0000    840.0000    614.0000    759.0000    769.0000    653.0000
    895.0000    791.0000    752.0000    697.0000    842.0000    674.0000
    651.2250
     2.6000
    616.0000    655.0000    763.0000    603.0000    616.0000    821.0000
    732.0000   1081.0000    678.0000    777.0000    667.0000    694.0000
   1011.0000    837.0000    614.0000    760.0000    770.0000    650.0000
    893.0000    793.0000    755.0000    696.0000    843.0000    678.0000
    651.2250
     2.7000
    620.0000    653.0000    762.0000    606.0000    617.0000    825.0000
    731.0000   1080.0000    679.0000    779.0000    668.0000    693.0000
   1011.0000    842.0000    613.0000    757.0000    767.0000    652.0000
    890.0000    792.0000    753.0000    698.0000    841.0000    676.0000
    651.2250
     2.8000
    618.0000    655.0000    762.0000    604.0000    617.0000    821.0000
    727.0000   1080.0000    679.0000    777.0000    666.0000    692.0000
   1006.0000    845.0000    613.0000    759.0000    768.0000    653.0000
    894.0000    792.0000    755.0000    696.0000    842.0000    675.0000
    651.2250
     2.9000
    618.0000    653.0000    764.0000    605.0000    617.0000    825.0000
    733.0000   1080.0000    679.0000    778.0000    666.0000    695.0000
   1012.0000    841.0000    614.0000    759.0000    767.0000    652.0000
    893.0000    790.0000    754.0000    697.0000    844.0000    676.0000
    651.2250
     3.0000
    618.0000    653.0000    763.0000    604.0000    615.0000    821.0000
    729.0000   1081.0000    678.0000    776.0000    668.0000    693.0000
   1005.0000    837.0000    614.0000    758.0000    770.0000    651.0000
    893.0000    791.0000    755.0000    696.0000    840.0000    676.0000
    651.2500
     3.1000
    619.0000    655.0000    763.0000    604.0000    616.0000    827.0000
    732.0000   1078.0000    679.0000    778.0000    665.0000    693.0000
   1009.0000    841.0000    617.0000    757.0000    770.0000    652.0000
    889.0000    791.0000    755.0000    697.0000    841.0000    676.0000
    651.2250
     3.2000
    619.0000    655.0000    762.0000    604.0000    616.0000    824.0000
    731.0000   1079.0000    678.0000    779.0000    669.0000    693.0000
   1012.0000    840.0000    615.0000    757.0000    770.0000    650.0000
    895.0000    790.0000    754.0000    697.0000    841.0000    677.0000
    651.2250
     3.3000
    618.0000    655.0000    763.0000    605.0000    617.0000    822.0000
    730.0000   1079.0000    678.0000    778.0000    667.0000    694.0000
   1010.0000    842.0000    615.0000    759.0000    770.0000    653.0000
    894.0000    790.0000    753.0000    694.0000    837.0000    673.0000
    651.2500
