~Version Information
VERS.                      2.0: CWLS Log ASCII Standard - VERSION 2.0
WRAP.                      YES: Multiple lines per depth step
~Well Information Block
STRT.SEC               -1.8000: START DEPTH
STOP.SEC              599.7000: STOP DEPTH
STEP.SEC                0.1000: STEP
NULL.                -999.2500: NULL VALUE
COMP.                         : COMPANY
WELL.                         : WELL
FLD.                          : FIELD
LOC.                          : LOCATION
CNTY.                         : COUNTY
SRVC.                         : SERVICE COMPANY
DATE.          Fri Jan 03 08-09-13 2020: LOG DATE
UWI.                          : UNIQUE WELL ID
STAT.                         : STATE
~Curve Information Block
TIME.SEC           0 000 00 00: Elapsed Time
R01.IN                        : Radius 01
R02.IN                        : Radius 02
R03.IN                        : Radius 03
R04.IN                        : Radius 04
R05.IN                        : Radius 05
R06.IN                        : Radius 06
R07.IN                        : Radius 07
R08.IN                        : Radius 08
R09.IN                        : Radius 09
R10.IN                        : Radius 10
R11.IN                        : Radius 11
R12.IN                        : Radius 12
R13.IN                        : Radius 13
R14.IN                        : Radius 14
R15.IN                        : Radius 15
R16.IN                        : Radius 16
R17.IN                        : Radius 17
R18.IN                        : Radius 18
R19.IN                        : Radius 19
R20.IN                        : Radius 20
R21.IN                        : Radius 21
R22.IN                        : Radius 22
R23.IN                        : Radius 23
R24.IN                        : Radius 24
TEMP1.DEGF                    : TEMP1
~Parameter Information Block
~A  TIME   
# ...
   198.4000
   1155.0000   1231.0000   1272.0000   1138.0000   1195.0000   1320.0000
   1277.0000   1592.0000   1238.0000   1340.0000   1224.0000   1170.0000
   1582.0000   1353.0000   1197.0000   1314.0000   1297.0000   1175.0000
   1431.0000   1264.0000   1341.0000   1274.0000   1385.0000   1197.0000
    651.8250
   198.5000
   1155.0000   1231.0000   1273.0000   1135.0000   1195.0000   1317.0000
   1275.0000   1592.0000   1236.0000   1338.0000   1224.0000   1169.0000
   1581.0000   1354.0000   1197.0000   1306.0000   1298.0000   1176.0000
   1436.0000   1264.0000   1343.0000   1271.0000   1384.0000   1199.0000
    651.8000
   198.6000
   1155.0000   1233.0000   1274.0000   1136.0000   1196.0000   1317.0000
   1277.0000   1591.0000   1237.0000   1338.0000   1223.0000   1172.0000
   1580.0000   1353.0000   1196.0000   1313.0000   1297.0000   1175.0000
   1434.0000   1265.0000   1342.0000   1276.0000   1385.0000   1197.0000
    651.7750
   198.7000
   1153.0000   1230.0000   1272.0000   1137.0000   1193.0000   1316.0000
   1278.0000   1593.0000   1234.0000   1338.0000   1222.0000   1172.0000
   1581.0000   1352.0000   1196.0000   1310.0000   1299.0000   1175.0000
   1436.0000   1267.0000   1343.0000   1274.0000   1386.0000   1197.0000
    651.7750
   198.8000
   1154.0000   1230.0000   1270.0000   1138.0000   1194.0000   1318.0000
   1274.0000   1591.0000   1237.0000   1345.0000   1221.0000   1172.0000
   1580.0000   1352.0000   1195.0000   1312.0000   1299.0000   1173.0000
   1437.0000   1268.0000   1342.0000   1270.0000   1385.0000   1198.0000
    651.7250
   198.9000
   1156.0000   1230.0000   1272.0000   1139.0000   1196.0000   1317.0000
   1276.0000   1593.0000   1236.0000   1336.0000   1223.0000   1170.0000
   1581.0000   1352.0000   1197.0000   1311.0000   1299.0000   1175.0000
   1435.0000   1264.0000   1343.0000   1275.0000   1385.0000   1194.0000
    651.7500
   199.0000
   1153.0000   1230.0000   1273.0000   1137.0000   1193.0000   1317.0000
   1277.0000   1591.0000   1237.0000   1338.0000   1222.0000   1170.0000
   1577.0000   1352.0000   1198.0000   1314.0000   1298.0000   1175.0000
   1433.0000   1265.0000   1342.0000   1272.0000   1384.0000   1196.0000
    651.7750
   199.1000
   1156.0000   1230.0000   1272.0000   1136.0000   1194.0000   1318.0000
   1277.0000   1592.0000   1237.0000   1339.0000   1223.0000   1173.0000
   1581.0000   1354.0000   1194.0000   1314.0000   1297.0000   1173.0000
   1436.0000   1266.0000   1343.0000   1273.0000   1385.0000   1198.0000
    651.7750
   199.2000
   1154.0000   1231.0000   1271.0000   1137.0000   1195.0000   1317.0000
   1276.0000   1592.0000   1238.0000   1340.0000   1225.0000   1172.0000
   1582.0000   1351.0000   1196.0000   1312.0000   1296.0000   1174.0000
   1434.0000   1263.0000   1342.0000   1274.0000   1386.0000   1195.0000
    651.7500
   199.3000
   1155.0000   1230.0000   1271.0000   1137.0000   1195.0000   1321.0000
   1275.0000   1590.0000   1238.0000   1343.0000   1222.0000   1171.0000
   1582.0000   1353.0000   1196.0000   1310.0000   1297.0000   1174.0000
   1434.0000   1266.0000   1342.0000   1274.0000   1384.0000   1198.0000
    651.8000
   199.4000
   1152.0000   1231.0000   1270.0000   1138.0000   1195.0000   1318.0000
   1277.0000   1591.0000   1235.0000   1335.0000   1223.0000   1170.0000
   1580.0000   1350.0000   1198.0000   1312.0000   1297.0000   1174.0000
   1436.0000   1262.0000   1342.0000   1273.0000   1385.0000   1198.0000
    651.8250
   199.5000
   1154.0000   1232.0000   1272.0000   1136.0000   1196.0000   1318.0000
   1276.0000   1591.0000   1236.0000   1338.0000   1222.0000   1171.0000
   1580.0000   1352.0000   1196.0000   1312.0000   1298.0000   1173.0000
   1436.0000   1264.0000   1341.0000   1274.0000   1385.0000   1196.0000
    651.8250
   199.6000
   1154.0000   1229.0000   1273.0000   1137.0000   1195.0000   1318.0000
   1277.0000   1591.0000   1239.0000   1338.0000   1222.0000   1173.0000
   1582.0000   1349.0000   1197.0000   1311.0000   1296.0000   1177.0000
   1435.0000   1265.0000   1342.0000   1273.0000   1384.0000   1197.0000
    651.8500
   199.7000
   1154.0000   1232.0000   1272.0000   1136.0000   1195.0000   1317.0000
   1275.0000   1592.0000   1237.0000   1338.0000   1223.0000   1172.0000
   1581.0000   1354.0000   1197.0000   1309.0000   1298.0000   1175.0000
   1437.0000   1262.0000   1341.0000   1271.0000   1386.0000   1197.0000
    651.8250
   199.8000
   1156.0000   1230.0000   1271.0000   1138.0000   1196.0000   1319.0000
   1276.0000   1593.0000   1234.0000   1339.0000   1222.0000   1172.0000
   1581.0000   1353.0000   1193.0000   1314.0000   1298.0000   1176.0000
   1436.0000   1266.0000   1340.0000   1273.0000   1384.0000   1200.0000
    651.8250
   199.9000
   1153.0000   1231.0000   1272.0000   1136.0000   1195.0000   1316.0000
   1278.0000   1594.0000   1238.0000   1338.0000   1223.0000   1172.0000
   1580.0000   1353.0000   1197.0000   1312.0000   1298.0000   1175.0000
   1437.0000   1268.0000   1343.0000   1274.0000   1386.0000   1198.0000
    651.8250
   200.0000
   1153.0000   1229.0000   1272.0000   1137.0000   1195.0000   1319.0000
   1277.0000   1592.0000   1237.0000   1341.0000   1222.0000   1171.0000
   1581.0000   1354.0000   1196.0000   1314.0000   1299.0000   1174.0000
   1435.0000   1265.0000   1343.0000   1274.0000   1385.0000   1197.0000
    651.8000
   200.1000
   1155.0000   1231.0000   1271.0000   1139.0000   1196.0000   1316.0000
   1276.0000   1592.0000   1237.0000   1338.0000   1224.0000   1171.0000
   1580.0000   1352.0000   1196.0000   1315.0000   1298.0000   1176.0000
   1437.0000   1264.0000   1342.0000   1274.0000   1385.0000   1197.0000
    651.8250
   200.2000
   1155.0000   1232.0000   1271.0000   1137.0000   1195.0000   1321.0000
   1276.0000   1593.0000   1237.0000   1338.0000   1222.0000   1171.0000
   1581.0000   1352.0000   1189.0000   1311.0000   1297.0000   1175.0000
   1436.0000   1265.0000   1342.0000   1273.0000   1385.0000   1198.0000
    651.8000
   200.3000
   1157.0000   1229.0000   1272.0000   1136.0000   1197.0000   1318.0000
   1275.0000   1592.0000   1236.0000   1339.0000   1227.0000   1172.0000
   1580.0000   1353.0000   1189.0000   1308.0000   1299.0000   1176.0000
   1436.0000   1264.0000   1345.0000   1274.0000   1386.0000   1198.0000
    651.8000
   200.4000
   1153.0000   1230.0000   1271.0000   1137.0000   1194.0000   1316.0000
   1277.0000   1592.0000   1237.0000   1339.0000   1222.0000   1168.0000
   1581.0000   1350.0000   1197.0000   1313.0000   1295.0000   1174.0000
   1436.0000   1265.0000   1342.0000   1273.0000   1387.0000   1199.0000
    651.8000
   200.5000
   1154.0000   1231.0000   1271.0000   1137.0000   1195.0000   1319.0000
   1275.0000   1591.0000   1236.0000   1339.0000   1222.0000   1171.0000
   1584.0000   1354.0000   1198.0000   1308.0000   1296.0000   1173.0000
   1435.0000   1267.0000   1342.0000   1273.0000   1386.0000   1198.0000
    651.8000
   200.6000
   1154.0000   1229.0000   1273.0000   1137.0000   1195.0000   1318.0000
   1276.0000   1591.0000   1238.0000   1338.0000   1223.0000   1174.0000
   1582.0000   1351.0000   1198.0000   1314.0000   1296.0000   1175.0000
   1437.0000   1264.0000   1342.0000   1273.0000   1385.0000   1196.0000
    651.8000
   200.7000
   1155.0000   1232.0000   1273.0000   1136.0000   1194.0000   1320.0000
   1277.0000   1591.0000   1238.0000   1338.0000   1226.0000   1172.0000
   1581.0000   1352.0000   1192.0000   1312.0000   1297.0000   1171.0000
   1436.0000   1264.0000   1342.0000   1274.0000   1385.0000   1197.0000
    651.7750
   200.8000
   1155.0000   1228.0000   1273.0000   1137.0000   1194.0000   1317.0000
   1276.0000   1591.0000   1237.0000   1337.0000   1222.0000   1172.0000
   1582.0000   1351.0000   1191.0000   1312.0000   1298.0000   1174.0000
   1437.0000   1265.0000   1343.0000   1270.0000   1384.0000   1199.0000
    651.8000
   200.9000
   1154.0000   1231.0000   1272.0000   1137.0000   1194.0000   1316.0000
   1275.0000   1592.0000   1238.0000   1338.0000   1224.0000   1171.0000
   1581.0000   1352.0000   1194.0000   1312.0000   1298.0000   1174.0000
   1435.0000   1266.0000   1343.0000   1271.0000   1387.0000   1198.0000
    651.8250
